stop_id,stop_name,stop_lat,stop_lon
1,COLABA BUS STN.,18.9118892648,72.8230460117
2,SASOON DOCK,18.9145231799,72.8246617793
3,STRAND CINEMA,18.9173370318,72.8273949847
4,COLABA DEPOT,18.9128801073,72.8228241772
5,DR.SHYAMAPRASAD MUKHERJI CHK.,18.9256313577,72.8318061063
6,HUTATMA CHK./MUMBAI UNIVERSITY,18.9280061692,72.8313447664
7,HUTATMA CHK.,18.9264391247,72.8297885331
8,KHADI BHANDAR,18.9364462942,72.8338694154
9,CHH. SHIVAJI TERMINUS,18.9409747781,72.8345966953
10,MAHATMA PHULE MARKET,18.9451049251,72.8340495246
11,CHAKALA MARKET,18.9488290732,72.8349614757
12,ZAKERIA MASJID,18.9530445124,72.8338805984
13,MINARA MASJID,18.9569796797,72.8324043229
14,JOHAR CHK.,18.9584832148,72.8317793664
15,DR.M.IQBAL CHK.,18.9618113458,72.8320368584
16,NEW NAGPADA,18.9681527406,72.8329718705
17,A.H.ANSARI CHK./ NEW NAGPADA,18.9670470233,72.8328077148
18,BYCULLA STN(E),18.9766247816,72.8332814034
19,JIJAMATA UDN.,18.98102,72.8346
20,JAIHIND CINEMA,18.9855509964,72.8356015161
21,SHANTARAM PUJARE CHK.,18.9883104664,72.8358590082
22,SANT JAGNADE CHK.,18.9910708053,72.8356901624
23,BHARATMATA CINEMA,18.9966634532,72.8366944146
24,PAREL WORKSHOP,19.0013298657,72.8378102136
25,MADKEBUWA CHK.,19.0053063574,72.8396126581
26,HINDMATA CINEMA,19.0083495266,72.8413721872
28,CHITRA CINEMA,19.0136151515,72.844661453
29,KHODADAD CIRCLE,19.0165828703,72.8468455985
30,VEER KOTWAL UDN. (PLAZA),19.0216857288,72.842245956
31,RAM GANESH GADKARI CHK.,19.0251271702,72.8404614906
32,CITYLIGHT CINEMA,19.0302593381,72.8417167644
33,SHITALADEVI TEMPLE,19.0347321062,72.8423390369
36,MAHIM BUS STN.,19.042929316,72.8405178289
37,R.C.CHURCH,18.8966184798,72.8114438533
39,PILOT BUNDER,18.9038658512,72.8156280994
40,AFGHAN CHURCH,18.9062909571,72.8165447284
41,COLABA BUS STN.,18.912522949,72.8224455882
42,KHADI BHANDAR,18.9356910915,72.8334011266
43,JIJAMATA UDN.,18.9784882913,72.8337727019
44,MAHIM,19.04012,72.84161
45,TELEPHONE EXCHANGE,19.0512020027,72.8358937418
46,AKSHAYA,19.0520944249,72.8323961412
47,PARIJAT,19.0509383316,72.8299714242
48,UNIT TRUST OF INDIA,19.0497416652,72.8282118951
49,BND RECLAMATION BUS STN.,19.0479973563,72.8270317232
50,MANTRALAYA,18.9286867079,72.8246703809
53,SWAMI D.SARASWATI CHK.,18.9345004013,72.8371137225
55,COM.GULABRAO GANACHARYA CHK.,18.990566315,72.8315282344
54,N.M.JOSHI MARG POLICE STN.,18.9863670871,72.8316745739
56,LOWER PAREL STN.,18.9967212929,72.8313058059
57,DEEPAK CINEMA,19.005769303,72.8309059099
60,JAKHADEVI/ DADAR POLICE STN.,19.0133907494,72.8336954593
62,KALA NGR.,19.0531099866,72.8470974172
63,KHERWADI JN.,19.0616975349,72.8462830433
64,CARDINAL G.SCHOOL/TEACHER'S CLY.,19.0707817368,72.846843506
66,VILE PARLE SUB-WAY,19.0913002166,72.8445839533
67,GUJRAT SCTY./DAYALDAS RD.,19.0971751766,72.8504968165
68,SATHE COLLEGE,19.0983715005,72.8460121631
70,HANUMAN SCTY.BLDG NO.5,19.1037244372,72.8514194965
71,MATRUCHAYA,19.1036230575,72.8502393245
72,SUBHASH MARG,19.1037649891,72.8533077716
73,GARWARE CHK./ KOLDONGRI NO.2,19.1100458671,72.8517662203
74,SHIVAJI CHK.,19.1113885678,72.8500032901
75,VIJAY NGR.SCTY.,19.1152407744,72.8473639964
76,AGARKAR CHK.,19.119822756,72.8487587451
77,BYCULLA STN.(W),18.9742858639,72.8320587558
78,PAREL S.T.DEPOT/SANT ROHIDAS CHK.,19.0093130135,72.8332019328
79,VAKOLA POLICE STN.,19.0809465335,72.8468108817
80,PARLE TILAK SCHOOL,19.1034000218,72.848372507
82,PAREL S.T.DEPOT/SANT ROHIDAS CHK.,19.0099824994,72.8311849116
83,P.THAKRE CHK.,19.0215459211,72.8373861789
87,NAVY NGR.,18.9079393907,72.8059461549
89,DHOBI GHAT(NAVY NGR.),18.9071273957,72.8122976258
91,LION'S GATE,18.9280089383,72.8339898544
92,OLD CUSTOM HOUSE,18.9308911427,72.8356206375
93,NEW CUSTOM HOUSE,18.9339820113,72.8398293833
94,FOREIGN POST OFFICE,18.9354492647,72.8404718482
96,CHH. SHIVAJI TERMINUS(GPO),18.9453724522,72.8396117645
98,ST.MARY'S HIGH SCHOOL,18.9694839928,72.8361896629
99,MAZGAON COURT,18.9687940517,72.838936245
100,MAHARANA PRATAP CHK.,18.968750325,72.8401937201
101,ANJEERWADI,18.9724254728,72.8404308091
102,MUSTAFA BAZAR/SAVLYA TANDEL CHK.,18.9762817899,72.8402344341
103,BYCULLA STN.- E(GLORIA CHURCH),18.9755208563,72.8340546246
105,ROBERT GOMES CHK.,18.9811719739,72.8354279156
106,MASIANA HOSP/RUSTOM BAUG,18.9759977084,72.8375307674
107,P.MOHD.RAFI CHK.,19.0521364408,72.8380851949
108,BANDRA TALKIES/SHROFF EYE HOSPITAL,19.060668892,72.8370565687
109,KHAR,19.0691726662,72.8336219991
110,ST.TERESA CONVENT SCHOOL,19.075500175,72.8375026265
111,SANTACRUZ STN.RD.,19.0810769173,72.837867407
112,KHIRA NGR.,19.0875948013,72.838074815
113,SANTACRUZ DEPOT,19.0901111788,72.8381355963
114,NANAVATI HOSPITAL,19.0933992552,72.8395178434
115,VILE PARLE,19.1006552029,72.8393372259
116,ERLA,19.1083600265,72.8405817709
119,ANDHERI STN.(W),19.1199165888,72.8454312048
120,ANDHERI MARKET,19.1221491076,72.8463060133
121,AMBOLI NAKA,19.1273289538,72.847175049
122,JOGESHWARI BUS STN,19.1335425275,72.847619223
123,JOGESHWARI TEL.EXCH.,19.1431894578,72.8428991995
124,AJIT GLASS FACTORY,19.1468710202,72.8430551759
125,OSHIWARA BRIDGE,19.1502252059,72.8431820544
126,BEST NGR.,19.1540765068,72.8385901125
128,OSHIWARA DEPOT,19.1509965982,72.8358283704
130,K.C.COLLEGE,18.929281524,72.8281831323
131,AHILYABAI HOLKAR CHK.,18.9325696437,72.828140217
132,SANTACRUZ POLICE STN,19.0842113781,72.8345156356
134,JUHU KOLIWADA,19.0858727048,72.8281332369
135,JUHU TARA,19.0900311589,72.8274989768
136,ROYAL HOTEL,19.0922399166,72.8279186602
137,JUHU BEACH,19.0980391385,72.8268457766
139,DR.AMBEDKAR STATUE,18.9263181015,72.8297924577
140,MUMBAI GYMKHANA,18.9367503189,72.8305965787
142,KALBADEVI,18.9472502824,72.8288825806
143,SWADESHI MARKET,18.9497161128,72.8287752923
144,BHULESHWAR,18.9525979425,72.8295477685
145,VIJAY VALLABH CHK.,18.9552794954,72.8321059617
146,NEW NAGPADA,18.9688832693,72.8330791588
147,RUIA COLLEGE,19.0218525295,72.8508539417
148,JAGATDEV.N.VARMA CHK/KAPOLE NIWAS,19.0230088253,72.8517122486
149,MAHESHWARI UDN.,19.0268913676,72.855319674
150,GANDHI MARKET,19.0300978264,72.8579899787
151,LOKMANYA TILAK HOSPITAL,19.0364333987,72.8603593658
152,JAIN SCTY.,19.0388187232,72.8614136529
153,RANI LAXMIBAI CHK.(NEAR RD NO.1),19.0452499966,72.8651568411
154,RANI LAXMIBAI CHK.,19.0439417564,72.8643607675
156,CHUNABHATTI,19.0520127947,72.8675204409
157,CHUNABHATTI BUS TERMINUS,19.0515318033,72.8688013219
159,CHUNABHATTI PHATAK,19.0532195859,72.8693872584
160,TATA CLY.,19.0528646482,72.8733998431
161,SHIVSHRUSTI,19.0545094486,72.8817515577
163,NAIK NGR.,19.0576097187,72.8849769365
164,KAMGAR NGR.,19.060408555,72.8848481904
165,NEHRU NGR.,19.0620206434,72.8834356761
166,NEHRU NGR.BLDG. NO 36,19.063166519,72.8807641959
167,NEHRU NGR./ SHANTARAM RAUT CHK.,19.0611891181,72.8800775504
168,NEHRU NGR.MUNICIPAL SCHOOL,19.0611688369,72.8821267581
169,KURLA BUS STN (E),19.0650032738,72.8807763647
170,EVERARD NGR.,19.0507964755,72.8752883027
171,PRIYADARSHANI,19.0529033368,72.8800575088
173,LOKSHAHIR SATHE UDN./SUMAN NGR.,19.0536293719,72.8858287112
174,UMARSHI BAPPA CHK.,19.054061719,72.8895960962
175,BHAKTI BHAVAN,19.0524751367,72.8912170111
176,BASANT PARK,19.0503103152,72.8936021836
177,NAVJEEVAN SCTY.,19.0479372475,72.8933446916
178,CHEMBUR CLY.,19.0461469632,72.8932340323
179,MARAWALI CHURCH,19.0420743965,72.8933417269
180,AZIZ BAUG,19.0378270274,72.8948623173
181,VASHI NAKA,19.032979078,72.8962356083
182,SHANKAR MANDIR,19.0291748332,72.8971347783
184,CALICO CHEMICALS,19.0230080581,72.8979930852
185,B.D.PATIL MARG / HPCL,19.0260812444,72.8975950422
186,BHARAT PETROLEUM,19.0090620622,72.8990328592
187,GAWANGAON/REFINERIES,19.0201808526,72.8980037923
188,LUBE INDIA CO.,19.0145801767,72.898260383
189,TATA POWER CENTRE(CHEMBUR),19.0313378692,72.8968021626
191,DHANMILL NAKA,19.008643525,72.8308201312
192,H.P.NGR.,19.0277135905,72.8914793404
193,ACHARYA VIDYANIKETAN,19.0265776128,72.8901918801
194,WADALA RD.,19.0215872124,72.8901370118
195,MAZGAON DOCK,19.0243663703,72.8900082657
196,MAHUL VILLAGE,19.0146898313,72.8880127022
197,CHEMBUR NAKA/SWAMI VIVEKANAND CHK.,19.0540567684,72.8948291035
198,SANDUWADI,19.0532170246,72.8977974476
199,ACHARYA GARDEN/ DIAMOND GARDEN,19.0524716898,72.8998911661
1100,16TH RD/KHAR,19.0731566557,72.8310278675
201,DR.AMBEDKAR GARDEN,19.0617000214,72.9004992502
202,G.T.HOSPITAL,18.9466976897,72.8326815864
203,MAHATMA GANDHI HOSPITAL,18.9974111184,72.8404253165
204,K.E.M.HOSPITAL,19.0017326072,72.8410046737
205,BHOIWADA,19.00540477,72.8446524779
207,SPRING MILL,19.0118700268,72.8489479999
208,SAHAKAR NGR.,19.0119676036,72.8515555575
209,MADHAV NGR.,19.0127006388,72.8547913263
210,AZAD NGR.,19.0140030056,72.8556198379
211,WADALA STN./P.& T.QTRS.,19.0155245176,72.8571218749
213,WADALA GATE NO 4,19.018494427,72.8601142882
214,AMULAKH HIGH SCHOOL,19.0206853407,72.860779476
215,DON BOSCO/KHALSA COLLEGE,19.0254282429,72.8570795406
216,MATUNGA POLICE STN.,19.0306969734,72.8578706005
217,GURU TEGH BAHADUR NGR STN,19.0373299973,72.8651769378
218,SARDAR NGR.NO 2,19.0367316161,72.8683419445
219,SARDAR NGR.NO 4,19.0351697296,72.8673763492
220,ANTOP HILL CHURCH,19.0329790069,72.8666897037
221,ANTOP HILL POLICE STN.,19.0319242042,72.8649301746
222,C.G.S.DISPENSARY,19.0309099645,72.8631277301
223,KANE NGR.,19.0295305886,72.8642006137
224,ANTOP HILL,19.0263356665,72.8662326555
225,ANTOP HILL POST OFFICE,19.0246215402,72.863857291
226,INDIAN OIL DEPOT,19.0208483713,72.8643293598
227,WADALA FLY OVER BRIDGE,19.0186324254,72.8632468266
228,KORBA MITHAGAR,19.0163112579,72.8645492326
229,NADKARNI PARK POLICE STN.,19.0152157759,72.863476349
230,NADKARNI PARK,19.0138387513,72.8627834009
231,GANDHI MARKET,19.0323603254,72.8587289073
232,TATA HOSPITAL,19.0037208601,72.8422492186
233,BACKBAY DEPOT,18.9090196526,72.8167825799
234,PRESIDENT HOTEL,18.9143482377,72.8217178445
235,CUFFE PARADE MACCHIMARNGR.,18.9200838735,72.8260617505
237,Y.B.CHAWAN PRATISHTHAN,18.9252220278,72.8269385873
238,LION'S PARK,19.0598014333,72.8723226701
239,KURLA POST OFFICE,19.068988619,72.8752409136
240,GOL BUILDING,19.065987122,72.8748761331
241,ANJANABAI MAGAR,19.0639996144,72.8741680299
242,KURLA DEPOT,19.0755374014,72.8770819752
243,SHEETAL CINEMA,19.0812811324,72.881540124
244,KAMANI,19.0847095843,72.8853232154
245,MUKUND CO./ P.W.D.OFFICE,19.0850934835,72.8873336955
246,NARAYAN NGR.,19.0847284749,72.890509431
248,CHIRAG NGR.,19.0863086132,72.896121347
249,GHATKOPAR POLICE STN.,19.0869996261,72.8992641612
250,GHATKOPAR PIPE LINE,19.0875448233,72.9027720869
251,SARVODAYA HOSPITAL,19.0885918901,72.907039281
253,GOPAL BHAVAN,19.0905279599,72.9097355052
254,SHREYAS CINEMA,19.093237015,72.9125531407
255,DARGAH,19.0962736673,72.9151155929
257,VIKHROLI DEPOT,19.1024985018,72.9198540637
258,DHOBI GHAT/DR.AMBEDKAR NAGAR,18.911186631,72.8189337116
259,NITYANAND NGR.,19.0912579506,72.9137695475
260,LAXMI NGR.,19.0895951893,72.9161728068
262,MANEKLAL MUN.SCHOOL,19.0900592675,72.9026862563
263,JAGRUTI NGR.,19.0920870172,72.9017421187
264,JAMBHULPADA,19.0938816843,72.8997360802
265,BARVE NGR.,19.0912761424,72.9075360259
266,MUNICIPAL HOSPITAL(PARK SITE),19.1020576611,72.9169903996
267,SHIVAJI MAIDAN,19.1032539497,72.9155956509
268,VIKHROLI PARK SITE,19.1051396074,72.9128705266
271,DARUKHANA,18.9721539012,72.8452012061
272,REAY RD.STN.,18.9766438952,72.8440453723
273,ALBERT RD/ TANAJI MALUSARE CHK.,18.9853182743,72.8420605376
275,TANK BUNDER,18.9884475968,72.8453943251
277,JACKERIA BUNDER,18.9886707871,72.8456947325
278,SHIVAJI NGR.,19.0010269437,72.8538271903
279,DNYANESHWAR NGR.,19.0057494704,72.8540875628
280,KIDWAI NGR.,19.0095838443,72.8542592242
281,WADALA STN.(W),19.0161817646,72.857968521
282,GHATKOPAR STN.(W),19.0871057415,72.908999193
286,DHARAVI DEPOT,19.0506951083,72.858710427
288,GANDHI NGR.,19.0586861966,72.8478099296
291,SINDHI CLY.,19.1441340014,72.8405725768
292,MEHRABAD BAUG,19.1432707569,72.8377692593
293,MAHATMA GANDHI VIDYALAYA,19.1454516105,72.8368818572
294,MADINA MANZIL,19.1743222178,72.8451959871
295,BEHRAM BAUG,19.1459989219,72.8345000556
296,GOREGAON DEPOT,19.1541981254,72.8354572924
297,ANIK DEPOT,19.0461705058,72.8787112962
298,CUFFE PARADE POLICE STN.,18.9122132925,72.8178167585
299,WORLD TRADE CENTRE,18.9143976499,72.8193908246
300,G.D.SOMANI SCHOOL,18.9154328979,72.8202705892
301,BEST CLY.,19.0054656339,72.847656552
303,T.B.HOSPITAL,19.0050319463,72.8514010141
304,WADALA CHURCH,19.0193273678,72.8561257924
305,RANI LAXMIBAI CHK/ROOPAM CINEMA,19.0418415877,72.864536185
307,PRATIKSHA NGR.DEPOT,19.0423689584,72.8729261348
308,MAKER TOWER,18.9157373813,72.8174810918
314,PRATIKSHA NGR NO.1/SAMAJMANDIR HALL,19.0392047091,72.8667463252
315,TRANSIT CAMP DISPENSARY,19.0402188981,72.8692354152
317,BEST RECIEVING CENTRE,19.0414764839,72.8703512141
319,S.G.BARVE MARG NAKA,19.0570408476,72.8878251861
321,AMAR MAHAL,19.066192045,72.8996014875
322,GHATKOPAR SONAPUR,19.086721363,72.9133103056
323,GARODIA NGR./ R.T.O.,19.0674894849,72.902472818
324,PANT NGR.,19.0850570355,72.9139810151
325,POLICE STN- PANT NGR.,19.0860303879,72.9147534913
326,MARATHI VIDYALAYA(GHATKOPAR-E),19.0875512395,72.9169850892
327,GHATKOPAR DEPOT/CASURINA,19.0875432944,72.9186321159
328,VIKHROLI VILLAGE,19.1045377361,72.9304701388
332,VIKHROLI STN.RD.(E),19.1090997389,72.9323798717
333,GHATKOPAR BUS STN./GKD,19.0879619559,72.9182232873
335,MANDVI POST OFFICE,18.9572417583,72.8320962763
336,FIVE GARDENS,19.0195658302,72.8548630672
337,SHIVAJI NGR.TERMINUS,19.0646193296,72.9314347104
338,DR.AMBEDKAR GARDEN/CHEMBUR STN.,19.0615553318,72.9017346991
340,ACHARYA MARATHE COLLEGE,19.0589292631,72.9074238159
341,SAMRAT ASHOK NGR.,19.0552785652,72.9103849747
342,GAUTAM NGR./DEONAR ABATTOIR,19.059630957,72.9163225104
343,SHIVAJI NGR.JN.,19.0626420708,72.9183238093
344,TROMBAY,19.0335852151,72.950019518
345,GANDHI MARKET,19.0460131278,72.8972190013
346,R.C.F.CLY./GOLF CLUB,19.0461063972,72.9001004873
347,WADAVLI VILLAGE/BORLA SOC.,19.0457818689,72.9044778525
348,BASANT TALKIES,19.0457818689,72.9064519583
349,PANJARAPOL,19.0457413028,72.9085548102
350,DEONAR DEPOT,19.0457818689,72.9131038366
351,PUNJAB WADI,19.0453762076,72.9156787573
352,TELECOM FACTORY,19.0444431829,72.918382424
353,RAJ KAPOOR CHK./ BHABHA HOSPITAL,19.0436724194,72.9214294134
354,ANUSHAKTI NGR.,19.0427942436,72.9265934122
355,MANKHURD STN.RD.,19.04264,72.93041
356,MANDALA,19.0409435323,72.9390500256
357,CHEETA CAMP,19.0368867567,72.9458735653
358,SANT MUKTABAI HOSPITAL,19.0864145469,72.8976494035
359,MAROL MAROSHI BUS STN.,19.1190482464,72.8802714049
360,BAIL BAZAR,19.0878324095,72.8812462577
361,JARIMARI,19.0943120327,72.8833183943
362,SAFED POOL,19.0967047133,72.8836617171
363,DR.DATTA SAMANT CHK./SAKI NAKA,19.1041391679,72.8867717468
364,MITTAL EST.,19.1069574935,72.8840680801
365,MAROLNAKA/MATA RAMABAI AMBEDKAR CHK,19.1084595671,72.8786982486
366,MAROL VILLAGE,19.1122493277,72.8789826118
367,BOROSIL GLASS FACTORY,19.117719669,72.8846036256
369,STATE BANK,19.1064377425,72.8883301645
370,CHANDIVLI JN.,19.111886817,72.8884064293
371,E.S.I.S.LOCAL OFFICE,19.1222519659,72.8914200693
372,"DR.AMBEDKAR UDN., POWAI",19.1259532459,72.8942034459
374,MORARJI NGR.,19.1293070543,72.8961407571
378,R.T.O.OFFICE,19.0721038956,72.9096988709
379,RAMABAI NGR.,19.0801547885,72.9176653879
380,NALANDA SCTY.,19.0762032635,72.9140551777
381,GODREJ SOAP CO.,19.0912469396,72.9249824541
382,ASHA & USHA,19.1082162625,72.9236735294
383,VIKHROLI STN.RD.(W),19.1108850181,72.9253614645
384,CIPLA CO./MILITARY CANTEEN,19.1143798683,72.9261626193
385,PAPER MILL,19.11816,72.92594
386,HINDUSTAN CO.,19.1217191255,72.9254759738
387,GANDHI NGR.,19.1249223455,72.9251755664
388,TAGORE NGR.JN.,19.1249091717,72.9328594422
396,WORLI DEPOT,19.0133802422,72.8200516175
397,VAISHALI NGR.,19.187120037,72.9457135417
399,PASSPORT OFFICE,19.0104572331,72.8204452136
400,BABASAHEB WORLIKAR CHK.,19.0130353629,72.8236618709
401,GAMMON HOUSE,19.0136239807,72.8248450816
402,PRABHADEVI,19.0161012445,72.8283478137
403,SIDDHIVINAYAK MANDIR,19.0169232505,72.8298851213
404,AGAR BAZAR,19.0181942927,72.8325441
405,RANADE RD.,19.0224993603,72.8382874011
406,HUMA TALKIES,19.1323495408,72.9273582945
407,DOCKYARD CLY.,19.131452483,72.9269908319
408,CIBA CO.,19.1359517458,72.9293518333
409,BIRLA CO.,19.1342286173,72.928386238
410,MANGATRAM PETROLPUMP,19.1392408919,72.930914375
411,JANATA MARKET,19.1418162799,72.9324362462
412,BHANDUP STN.RD.(W),19.1457732349,72.9355280396
413,BHANDUP POLICE STN.,19.151118216,72.9376579771
414,KASTURI VIDYALAYA,19.1517896627,72.9384197245
415,USHA NGR.,19.1523724256,72.9396749983
416,BHANDUP VILLAGE(W),19.1517996933,72.9429458405
418,SUBHASH NGR.,19.159583208,72.9450916077
426,VIDYABEN GARDI SCHOOL/KESHAVPADA,19.171444239,72.9478280328
428,KALIDAS NATYAGRUH,19.1733291181,72.9496733926
430,MULUND RLY.STN.(W),19.1724764101,72.9560905875
434,E.S.I.S.HOSPITAL,19.1784778957,72.9445733087
435,VEENA NGR./GOVARDHAN NAGAR,19.1802416028,72.9459930162
436,SANTOSHI MATA MANDIR,19.1819439842,72.9470444422
437,KEVA FRAGNANS,19.1845661168,72.948183338
438,J.V.P.D.BUS STN.,19.1199906825,72.8297009585
439,MARINE LINES RLY. STN.,18.9474403665,72.8227821057
440,S.K.PATIL GARDEN,18.9495036442,72.8212515923
441,PT.PALUSKAR CHK.,18.9563352821,72.8156893762
442,SUKH SAGAR,18.9566898631,72.8133107193
443,BABULNATH RD.JUN.,18.9591657008,72.8096414574
444,NALANDA,18.9613420664,72.8088333723
445,CUMBALA HILL POST OFFICE,18.9631006901,72.8077476274
446,JASLOK HOSPITAL,18.9715018311,72.8094213258
447,VATSALABAI DESAI CHK.,18.9790678632,72.8118941321
448,LALA LAJPATRAI COLLEGE,18.9860793579,72.8141182105
449,NEHRU PLANETARIUM,18.9888845822,72.8139196724
451,JARIMARI MATA MANDIR/S.T.OFFICE,18.9917489002,72.814065255
452,ACHARYA ATRE CHK.,18.9980791454,72.8170693291
453,GANDHI MAIDAN,19.0026058425,72.81937233
454,COM.P.K.KURNE CHK.,19.0060142436,72.8215395549
455,DOORDARSHAN,19.0068054696,72.8182136157
456,DR.RAVINDRA KULKARNI CHK/SASMIRA,19.0087936619,72.8193508723
458,NATIONAL COLLEGE,19.0622964519,72.8356403624
459,KHAR TEL.EXCHANGE,19.0643171341,72.8347731276
460,KHAR STN RD (W),19.0713022851,72.8373095075
461,RAMKRISHNA MISSION,19.0751669925,72.8341937705
467,BALKANJI BARI SCHOOL,19.0849616749,72.8319407149
468,JUHU HOTEL,19.1042436753,72.8267170306
469,JUHU BUS STN.,19.1074884012,72.8267706888
470,PARSI CLY.,19.1015687255,72.8270483657
471,BHARATIYA AROGYA NIDHI HOSPITAL,19.1121516972,72.829045202
473,WADALA DEPOT,19.0146419145,72.8532377903
474,SHANGRILA CO.,19.1557319341,72.9374384494
476,DR.K.B.HEDGEWAR CHK.,19.1637929814,72.9376023082
477,GOREGAON-MULUND LINK RD,19.1603027592,72.9467116619
480,MULUND SONAPUR,19.1772088048,72.9534298362
481,MUNICIPAL SCHOOL,19.1804312142,72.953901905
483,MUMBAI CENTRAL DEPOT,18.9685071128,72.8224398713
484,MARATHON CHK.(TEEN HATH NAKA),19.1824676135,72.9874126908
485,MUMBAI CENTRAL STN.,18.9688476504,72.8197714356
486,NAIR HOSPITAL,18.974424237,72.8232010271
487,AGRIPADA POLICE STN.,18.9784013713,72.8244241144
488,SANT GADGE MAHARAJ CHK.,18.9807147725,72.8264425017
489,KASTURBA GANDHI HOSPITAL,18.9834335277,72.8288229372
491,RALLI WOLF,19.1714654448,72.9407538431
492,JOHNSON & JOHNSON CO.,19.175518921,72.9424275415
494,MULUND-W CHECK NAKA BUS STN.,19.1828554594,72.9539288537
495,WAGLE EST.POST OFFICE,19.1946488757,72.9499874229
496,SEVEN BUNGALOWS BUS STN.,19.1309708691,72.8199207614
500,WILSON COLLEGE,18.9560393226,72.8112220415
501,NANA CHK.,18.9623112126,72.8133661727
502,BHATIA HOSPITAL,18.9650101888,72.8129584769
503,VASANTRAO NAIK CHK.,18.9694201687,72.8152383012
504,AIR CONDITION MARKET,18.9727988113,72.8146010081
506,MITHIBAI COLLEGE,19.1035071371,72.8369375584
507,DR.COOPER HOSPITAL,19.1084645384,72.8369858381
509,ESIC NGR.,19.1238509604,72.8303636779
511,INDIAN OIL NGR.,19.1284338647,72.8290629991
512,FOUR BUNGALOWS,19.1292042338,72.8261876711
513,BALLARD PIER,18.9334492231,72.8420878033
514,SAIDHAM,18.9579684073,72.8170568923
517,KHAR POLICE STN/SACRED HEART SCHOOL,19.0743375782,72.8375437376
522,GOREGAON BUS STN(W),19.1650686232,72.8484736719
523,PODDAR HOSPITAL/SIDDHARTH NGR.,19.0035128932,72.8161598559
524,POLICE CLY.,19.004575453,72.8170529078
525,OLD KHAR,19.0655773197,72.8372876844
527,JUHU SHOPPING CENTRE,19.1161081749,72.8334882376
528,NEW D.N.NGR.,19.1218236001,72.8298486938
529,D.N.NGR./BARFIWALA VIDYALAYA,19.1263971274,72.8309884188
530,JEEVAN NGR.,19.1319163366,72.8315495317
531,LAXMI INDL.EST.,19.1350886137,72.8319553321
532,MONGINIS CAKE CO.,19.1371821001,72.8318038103
534,ADARSH NGR.,19.1448091366,72.831270582
535,SCOUT CAMP/DNYANSAGAR VIDYALAYA,19.1461086859,72.8347222699
536,ANAND NGR.,19.1504443525,72.8359054391
538,VIVEK VIDHYALAYA,19.158987986,72.8395472803
540,JAIN MANDIR,19.0845703571,72.9115348405
541,P.THAKRE UDN.BUS STN.,18.9978536825,72.8524730968
542,MALVANI DEPOT/ GAIKWAD NGR.,19.1814156127,72.8191678308
543,SEWREE NAKA,18.9985029257,72.8503917026
544,PAREL VILLAGE/ST.GORA KUMBHAR CHK.,19.0003694857,72.8466151523
545,HAFFKINE INSTITUTE,19.0014650656,72.8445123004
547,PAREL S.T.DEPOT/SANT ROHIDAS CHK.,19.0093144166,72.8332590801
549,SHARDASHRAM VIDYAMANDIR,19.0160595,72.8375080844
550,KABUTARKHANA,19.0188760966,72.8405829864
551,ARYA SAMAJ MANDIR,19.0797906414,72.8344727202
552,SANTACRUZ POLICE STN,19.0845256921,72.8347194835
553,SANTACRUZ STN.RD/ KASHIBAI HOSP.,19.0841373455,72.8379882901
555,FAROOKH VIDYALAYA,19.1306942462,72.8476042024
556,JOGESHWARI TABELA,19.1391675343,72.8444135001
557,RAM MANDIR,19.1515737447,72.8442997209
560,JAWAHAR NGR.,19.1593174684,72.8478112337
561,FILMISTAN,19.1628477372,72.8458534191
564,RAJASTHANI SAMMELAN CAMPS/CHINCHOLI,19.1778081529,72.846118667
565,CHINCHOLI BUNDER RD.,19.1791281523,72.8366534966
566,KACHPADA,19.18943,72.83556
567,EVERSHINE NGR.,19.19362,72.83436
568,MITH CHKY,19.1958041325,72.833029487
569,ASMITA JYOTI,19.196063352,72.8284767913
570,FIRE BRIGADE/KHARODI CLY.,19.1959822935,72.8214386748
571,MALVANI BLOCK NO 5/ POLICE STN.,19.1923591085,72.8220860742
572,MALVANI BLOCK NO 6,19.1904947125,72.819940307
573,MALVANI BLOCK NO 7,19.1860362885,72.818824508
574,DINDOSHI BUS STN.,19.1762321596,72.8646761866
576,KHEDGALLI,19.0147438313,72.8325573055
577,MARATHA CLY.,19.0735916366,72.847063589
578,NEW AGRIPADA,19.085541315,72.845785583
580,PARSIWADA,19.1088389751,72.8556687125
581,CHAKALA CIGARETTE FACTORY,19.1073791456,72.8591019401
582,SAHAR P.& T.CLY.NO 1,19.1051893771,72.8609902152
584,SAHAR P.& T.CLY.NO 2,19.1028779235,72.862578083
585,WAREHOUSE,19.1010498219,72.8642492561
587,SAHAR POLICE STN.,19.1032193692,72.8735940723
588,CHH. SHIVAJI INT.AIRPORT(SAHARA),19.095879291,72.8732078342
589,J.MEHTA MARG,18.9501044262,72.7954991731
590,KURLA STN (W),19.0666319246,72.8793608576
591,PREM NGR.,18.9505224478,72.7935080729
592,NARAYAN DABHOLKAR MARG,18.952369251,72.7949886523
593,DARYA MAHAL,18.954021258,72.7977522286
594,PETIT HALL,18.9568624256,72.7997048768
595,PRIYADARSHANI,18.9597037937,72.8007916006
596,PETROL PUMP/MAHESHWARI MANSION,18.9640668468,72.8032806905
597,MUKESH CHK.,18.9647415879,72.8046164306
598,PARSI GENERAL HOSPITAL,18.96897014,72.8036809607
599,BREACH CANDY HOSPITAL,18.9719125132,72.804775302
600,MAFATLAL PARK,18.9746925008,72.8063202544
601,MAHALAXMI TEMPLE,18.9763767043,72.8085303946
602,VAKOLA PIPE LINES,19.080662631,72.8524757071
603,MILITARY CAMP,19.0811290421,72.8588057204
604,KALINA,19.0778235785,72.8618527098
605,VIDYA NGRY,19.0728145601,72.8612733527
606,NAFA,19.0714963722,72.8620029135
607,AMAR BRASS & STEEL CO.,19.0727404138,72.8669367944
608,METRO PLAYING CARDS,19.073794957,72.8694687998
610,BUDDHA NGR.,19.0738125345,72.8802753002
611,MEHTAB LANE(KURLA MARKET),19.0705257328,72.8793393999
612,JUHU PRABHAT,19.1192328816,72.8280810818
613,ABHISHEK APT.S,19.121090906,72.8263930103
614,VERSOVA LINK RD.,19.123378872,72.8242616161
616,R.T.O./NEW VIKAS HSG SOC,19.1302178718,72.825672687
617,TELEPHONE EXCHANGE,19.1346778051,72.825672687
618,SHREE SWAMI SAMARTH NGR.,19.1398939025,72.8260222142
619,LOKHANDWALA COMPLEX JN.,19.1417684727,72.8314851587
620,SEEPZ BUS STN.,19.1257095996,72.8732570625
621,MUKESH CHK.(UMAR PARK/TATA GARDEN),18.9652945691,72.8039566072
622,VILE PARLE STN.(E),19.0986894784,72.8447080298
623,PARLESHWAR MANDIR,19.1029742255,72.8459477901
624,VISHAL HALL/PRAKASH STUDIO,19.118799681,72.8513611743
625,NATRAJ STUDIO,19.1177142493,72.8531575679
627,CHAKALA,19.1161640271,72.8557814548
628,NELCO,19.1160720283,72.8617835521
629,MAROL DEPOT,19.1179980883,72.8655601024
630,E.S.I.S HOSP./MIDC POLICE STN.,19.1178755046,72.868040164
632,DOMESTIC AIRPORT JUN.,19.0951410415,72.8523469611
633,SAMBHAJI NGR.,19.0988210798,72.8538249301
634,HANUMAN RD.,19.1018477555,72.854568268
635,BAHAR CINEMA,19.108984816,72.853452469
636,DARPAN CINEMA/ SAI SERVICE,19.1138655946,72.8546403217
638,SHANKARWADI,19.1258272372,72.855927782
639,ISMAIL YUSUF COLLEGE,19.1307996022,72.8551690828
640,JOGESHWARI POLICE STN,19.138639426,72.8550265598
641,S.R.P.CAMP,19.1423792063,72.8554466846
642,MAHANANDA DAIRY,19.1503821182,72.8565532935
643,VANRAI/ MHADA CLY.,19.1564222138,72.8570573579
644,GOREGAON CHECK NAKA NO 1,19.1661755084,72.8582061784
645,B.S.E.S.,19.0833696287,72.8463147449
646,VIRWANI EST./SARVODAYA NGR.,19.1703670263,72.8588598024
647,GEN.A.K.VAIDYA MARG JUN.,19.1739864855,72.8593741693
652,PATHANWADI,19.1802705082,72.8584892425
654,PUSHPA PARK,19.1915453675,72.8584036924
655,BANDONGRI,19.197738003,72.8600665024
656,MAHINDRA CO. GATE (B.H.A.D.CLY.),19.2059713752,72.8653062478
657,DATTANI PARK,19.2103825008,72.8683062485
658,MAGATHANE TEL.EXCHANGE,19.214885705,72.8676356954
659,MAGATHANE DEPOT,19.2212443661,72.8658120629
660,DEVIPADA,19.2277984156,72.8631800711
661,OMKARESHWAR MANDIR,19.2313748766,72.8623782475
662,SHARDA CINEMA,19.0139557342,72.8465237334
664,VILEPARLE STN(E)/DINANATH NATYAGRUH,19.1008051991,72.8446422731
665,FERRY WHARF,18.9572807823,72.8495255906
666,PT.PALUSKAR CHK(MARWADI VIDYALAYA),18.9573619942,72.8170516141
667,MALLET BUNDER,18.9595068647,72.8459336474
668,RAILWAY CROSSING,18.9600040562,72.8439273551
669,NIRMAN BHAVAN,18.9659296527,72.8471460059
670,MAZGAON DOCK,18.9674273889,72.8463176687
671,DOCKYARD RD.RLY.STN.,18.9679534,72.8442356108
672,INSPECTOR KAKLIS CHK.,18.9635154452,72.8440105873
673,CENTRAL RLY GOODS,18.9596800105,72.8431951957
674,WADI BUNDER,18.9574477063,72.8426587539
675,PRINCESS DOCK,18.9557836056,72.8421866852
676,LOHA BHAVAN,18.953835369,72.841736074
677,CARNAC BUNDER,18.9520900544,72.8413927513
678,MUSAFIR KHANA,18.9485842973,72.8360940473
679,CHIRA BAZAR,18.9493468285,72.8255130913
680,PRINCESS STREET,18.9453655145,72.8277857283
682,THAKURDWAR,18.9524640144,72.8219024931
683,GAIWADI,18.9537304467,72.8208782341
684,NAWAB TANK MARG,18.9655398149,72.8453927241
685,TADWADI,18.9654235104,72.8389891442
686,NOORBAUG,18.9626480621,72.837152978
687,SANDHURST RD.STN.,18.9609586465,72.838853506
688,CHINCH BUNDER,18.9586506468,72.8382947095
689,DONGRI,18.9583766821,72.836621011
691,GOL MANDIR,18.9581331576,72.8289820798
693,KHETWADI,18.9582549199,72.8238322384
694,PRARTHANA SAMAJ/ HARKISHANDAS HOSP.,18.9576979456,72.8198356711
695,CENTRAL TALKIES,18.9550444951,72.8190811541
696,NOVELTY CINEMA/ DR BHADKAMKAR RD.,18.9618437497,72.8183368797
697,MAHALAXMI STN.,18.982845869,72.8239356322
698,FAMOUS STUDIO,18.9858894489,72.8240643782
699,AMBIKA MILL B.STN/H.U.RAKHANGI CHK.,18.9889182323,72.8226127015
700,JIJAMATA NGR.,18.9919395625,72.8208256408
701,MUNICIPAL CLY.,19.0121251493,72.8202971804
703,DR.SHYAMAPRASAD MUKHERJI CHK./REGAL,18.9235674747,72.8317803649
705,RESERVE BANK,18.9328599439,72.8363341051
706,INDIRA DOCK,18.9377884182,72.839763745
707,FIRE BRIGADE,18.9503853109,72.8409206825
708,BEST POWER HOUSE(KUSSARA),18.96953621,72.8455445288
710,SHRAWAN YESHWANTE CHK.,18.9880273201,72.8414408185
711,HAKOBA,18.9881287705,72.8392735937
712,WORLI VILLAGE,19.0160595,72.8179172298
713,DAWN MILL,18.9980197856,72.8294389884
714,GOPIKRISHNA PIRAMAL HOSPITAL,18.9982632519,72.8254478614
715,SHREE RAM MILL,18.9984255625,72.822851483
716,GANDHI NGR.,18.9937493797,72.8227245765
717,JIJAMATA NGR.,18.9927171538,72.8204366523
718,ADARSH NGR.,19.0142945504,72.8203634044
719,UMERKHADI,18.9624201431,72.8348263558
722,KALACHKYPOLICE STN.,18.9879606352,72.843441677
724,JUBILEE MILLS,18.9937432119,72.8485700606
725,SWAN MILLS,18.996461968,72.8493210791
726,KHODADAD CIRCLE (BHAVE CHK),19.0164451593,72.846662381
727,DADAR POST OFFICE,19.0150656633,72.8457075146
728,MAHIM MACHHIMAR NGR.,19.0448537078,72.8434870224
734,REAY RD.BRIDGE,18.9760554414,72.8441848471
735,MAFATLAL MILL,18.9773033667,72.8414704516
738,SEWREE RLY.PHATAK,18.9960561863,72.8529045104
739,SEWREE NAKA,18.9891577466,72.8462955474
740,SEWREE STN.(W),18.9980133058,72.8540356141
741,MADHAV NGR.,19.0117483037,72.8527460079
746,BABULNATH,18.9563884608,72.8081850096
749,MOTI CINEMA,18.9581138708,72.8265664818
751,CHOWPATI BAND STAND,18.9558912585,72.8089789435
752,WILSON COLLEGE,18.9574431694,72.8103568204
754,CHRIST CHURCH SCHOOL,18.9693766069,72.8297276579
755,ALEXANDRA CINEMA,18.9671402535,72.8281346112
758,AUGUST KRANTI MAIDAN,18.9631181462,72.8105172905
759,GODREJ CHK.,18.9640719201,72.8078779968
762,GOODS SHED,18.9806865891,72.8464326547
763,C & D SHED,18.9857186765,72.8486642526
764,B.P.T.CLY.,18.9920897302,72.8519258188
769,GODREJ FOODS CO./VEG.OILS,19.0096571075,72.8614593278
770,B.P.T.CLY.,19.011482968,72.8621459733
771,B.P.T.HOSPITAL,19.0124186595,72.8624829935
775,LOWER PAREL WORKSHOP,19.0027706375,72.8310516995
777,MAHIM STN.( W ),19.0403029609,72.8465533896
780,PHOENIX MILL,18.994809588,72.8255180083
781,K.V.YADAV CHK.,18.9995682811,72.8281212493
782,BHARATMATA CINEMA,18.9953924587,72.8366343
786,K.E.M.HOSPITAL,19.000552234,72.8427666923
792,BHARATMATA CINEMA/MAHADEO PALAV MAR,18.9953561853,72.8351553575
807,DR.BHADKAMKAR RD.,18.9617820011,72.8173645403
808,GANESH TALKIES,18.9883250885,72.8336486797
809,KUMBHARWADA,19.0540868043,72.8922723004
810,RESERVE BANK CLY.,19.0526558292,72.8992182986
811,MAITRI PARK,19.049406394,72.9053017293
812,R.K.STUDIO,19.0468102014,72.9080483113
815,VASUDEO B.PHADKE CHK.,18.9432084706,72.8299273106
816,VASUDEO B.PHADKE CHK.,18.9439042479,72.8286011199
817,VASUDEO B.PHADKE CHK.,18.9382623884,72.8302854425
818,VASUDEO B.PHADKE CHK.,18.9442419624,72.8295273086
819,CHH. SHIVAJI TERMINUS(GPO),18.9384599027,72.8370017985
820,CHH. SHIVAJI TERMINUS,18.9391804134,72.8354246596
822,MINERVA TALKIES,18.9657391443,72.8190382387
823,DR.SHIRODKAR HIGH SCHOOL,18.9987907608,72.8396957557
824,NAIGAON POLICE CLY.,19.0070821834,72.8470060806
825,BEST CLY.,19.0126003637,72.8538188915
826,KHODADAD CIRCLE (DADAR WORKSHOP),19.016389371,72.8499293115
829,S BRIDGE/MANDLIK CHK.,18.9796906391,72.8320003032
830,BAWLA MASJID,18.9930822284,72.8314424037
833,MAHAPOUR NIWAS/SHIVAJI PARK,19.0258791287,72.8359009142
837,R.B.I.BANK,19.057142447,72.8525770407
838,INCOME TAX OFFICE,19.0584174471,72.8538854252
839,TATA CLY.,19.0596167898,72.8556240301
840,BHARAT NGR.,19.0608917709,72.8590996396
841,BKC TEL.EXCHANGE,19.0709712168,72.8721029889
842,KAPADIA NGR.,19.0748765844,72.8721745379
844,WADALA GATE NO 2/5,19.0174517461,72.8593749305
845,GAONDEVI POLICE STN.,18.960345732,72.8125623748
846,APNA BAZAR,19.0071191969,72.8450242498
847,SPRING MILL/HINDMATA CINEMA,19.011075263,72.848478935
849,SHARDA CINEMA,19.0141741156,72.8460688808
851,CHITRA CINEMA,19.0150620163,72.8454923976
852,V.J.T.I.COLLEGE,19.0222636709,72.8569078792
855,WILSON COLLEGE,18.9568450738,72.8102234885
856,BABULNATH TEMPLE,18.9578800586,72.8090433165
858,RAILWAY HOTEL / CHARNI RD.JUN.,18.9587938061,72.8196210944
859,TARDEO BUS STN/RUSHI MEHTA CHK.,18.9647092991,72.8206617915
860,SHUKLAJI STREET,18.9663022862,72.8245885455
861,MADKEBUWA CHK.,19.0054987546,72.8395809614
862,EVERARD SCTY.,19.051119482,72.8775954972
863,WALKESHWAR,18.9465861117,72.7957416221
864,TEEN BATTI,18.9482503042,72.7981877967
865,PARSI AGYARI,18.9489403304,72.7997971221
866,WHITE HOUSE,18.9501580166,72.8016853972
867,SHITAL BAUG,18.9527752769,72.8050943879
868,TEEN BAKDA,18.9547124111,72.8075574464
871,NAIGAON POLICE CLY.,19.0079662087,72.8471846798
872,PHANASWADI,18.9527037956,72.8246346343
873,KASTURBA GANDHI CHK.,18.9549533852,72.825702212
874,GULAL WADI/YADNIK CHK,18.9558463238,72.8271506049
878,PLAY HOUSE,18.9584588639,72.8255901577
879,TWO TANKS,18.9619175061,72.8280978403
880,HASRAT MOHANI CHK.,18.9670482385,72.828781388
886,GOPAL NGR.,19.0063373639,72.8237926916
887,BOMBAY DYEING,19.0063373639,72.8287279562
890,KIDWAI RD.POLICE STN.,19.0050725224,72.8498131463
891,KHAMBATA LANE,18.9567088168,72.8284058787
895,HUTATMA CHK. ( O.C.S.),18.9320825189,72.8312515794
896,HUTATMA CHK. (SIDDHARTH COLLEGE),18.933790825,72.8320904205
897,HUTATMA CHK. (SIDDHARTH COLLEGE),18.9329958767,72.8315519869
900,BANDRA BUS STN(W),19.0541622958,72.8392646526
901,AHILYABAI HOLKAR CHK.,18.9328656479,72.8279718602
902,INCOME TAX OFFICE,18.9405426334,72.8266724404
903,MARINE LINES RLY.STN.(KALA NIKETAN),18.9441931305,72.825056619
906,KAMGAR STADIUM,19.0128162618,72.8367472335
907,MHATRE PEN CO.,19.016204167,72.8399658843
908,DADAR STN.-W,19.019276751,72.8426513966
909,ZARAPKAR STORES,19.0233297005,72.8448475047
911,RUPAREL COLLEGE,19.0252517671,72.8453732177
912,MATUNGA STN.(W),19.0286799892,72.8467035933
913,SARASWATI VIDYA MANDIR,19.0351102503,72.8476906463
919,SIR ALIYAWAR JUNG INSTITUTE,19.0520538604,72.8341985857
921,HILL RD.GARDEN/MEHBOOB STUDIO,19.0523885175,72.8240662729
922,ST.PETER'S CHURCH,19.0549136361,72.8293491518
925,BANDRA POLICE STN,19.0560535829,72.8348255967
928,DHARAVI FLY OVER BRIDGE,19.0483107892,72.856443567
932,SHAHU NGR.,19.0413739506,72.8500920961
935,KHAMBEKAR STREET,18.958173745,72.835376466
938,SWAMI NARAYAN CHK.,19.0175355616,72.8440016296
940,RAJA SHIVAJI H.SCHOOL-HINDU CLY.,19.0209030846,72.8486633089
944,MATUNGA RLY PHATAK (E),19.0334791511,72.854615348
952,NATURE PARK/P.M.G.P.CLY.,19.0516280978,72.8627873847
953,RANI LAXMIBAI CHK./ SION BARRIER,19.0471333906,72.863122383
954,DHARAVI T JN./TAPASE CHK.,19.0470824434,72.8521049719
955,M.I.G.CLY.(KALA NGR.),19.0569014184,72.8476382682
956,G.S.CLY.,19.0622162949,72.8477401143
958,KALAKILLA,19.0481800669,72.8577233741
959,P.THAKRE NGR.BUS STN.,19.220673614,72.8286804114
960,MAHARASHTRA BANK,19.1412151851,72.8220633108
961,ORIENTAL BANK/S.SAMARTH NGR MARKET,19.141007274,72.8276722485
962,ZULELAL CHK.,19.1401489787,72.8264181508
963,SHREE SWAMI SAMARTH NGR.EXT.,19.1416085187,72.8284566296
969,SHASTRI NGR.,19.1591845247,72.8352372903
971,BANGUR NGR.,19.1676973439,72.8351085442
972,VINAY INDUSTRY(SUBKUCH MARKET),19.1745478172,72.8370397347
974,KANDIVLI INDU EST./ GANESH NGR.,19.2047699664,72.828314069
975,HINDUSTAN NAKA/C.CHARANSINGH CHK.,19.2103927419,72.830026037
976,SAHYADRI NGR.,19.2103804136,72.8289164458
977,BANK OF MAHARASTHRA,19.212776674,72.8283069909
978,P.THAKRE NGR.MARKET,19.2154988979,72.8284810846
979,SAIBABA MANDIR,19.2182545352,72.8287385767
980,KAMLA NEHRU PARK,18.95531,72.8045
981,SAHYADRI GUEST HOUSE,18.9527354233,72.8026080771
982,MALBAR HILL POST OFFICE,18.9507262672,72.8005052253
983,REKHA SADAN/JAIN MANDIR,18.9498130064,72.7993250533
985,DAULAT NGR.,19.0846386594,72.8321802907
986,SHASTRI NGR.,19.0845291432,72.8345120314
987,WORLI SEA FACE (N),19.0134411032,72.8169027041
988,SAMRAT HOTEL,18.9316102836,72.8269606607
989,WORLI SEA FACE (S),19.0003834221,72.8111999671
990,POLICE CAMP,19.009576887,72.8153940993
992,MIRA RD.STN.(E),19.2822563217,72.85811987
993,VATSALABAI DESAI CHK/SAHAKAR NIVAS,18.9773339986,72.8115218322
995,GUNDAVLI/LION'S CLUB,19.1160404708,72.8550832521
998,DAULAT NGR.,19.2364895964,72.8593846298
1002,DAHISAR STN.RD.(E),19.2487466353,72.862665087
1004,NOVELTY SILK MILL,19.253851599,72.8660983145
1006,GOLDEN CHEMICALS,19.2586801738,72.8721116724
1007,MAHAVISHNU/SAMRAT HOTEL,19.2632706291,72.8745766616
1008,TRANSPORT CORPN,19.2681321557,72.8778277392
1009,KASHIMIRA,19.2731834589,72.8824971857
1010,PUNJAB FOUNDRY,19.2759470896,72.8819450395
1011,SILVER PARK,19.282012,72.8739480817
1018,NERUL BUS STN.,19.0396183432,73.0192978559
1020,DNYAN SARITA,19.178736285,72.9504778865
1023,GODREJ CO.,19.105174925,72.9219140002
1024,SHIVAJI NGR.JN.,19.0622819389,72.9172338143
1025,B.M.C.COMPOST PLANT,19.057373859,72.9271043435
1027,MOHITE PATIL NGR.,19.0534126219,72.9352758743
1028,MANKHURD OCTROI NAKA,19.0583873045,72.956328932
1029,VASHI VILLAGE,19.0689295804,72.9867397636
1030,Y.B.CHAVAN MARG JN.,19.0686621916,72.9965312658
1031,APNA BAZAR,19.0707905256,72.9975664395
1032,VASHI BUS STN.,19.0749324134,72.9976831764
1033,SSC BOARD OFFICE/ST.LAWRENCE SCHOOL,19.0741783254,73.0015952765
1034,SHIV CENTRE,19.0737727336,73.0062301336
1036,I.C.L.SCHOOL,19.0731597437,73.0171112944
1038,TURBHE NAKA (JANTA MARKET),19.0720240771,73.0190854002
1039,THANE BELAPUR JN.,19.0672831295,73.0187614141
1040,TURBHE POLICE STN.,19.0622535115,73.0190189062
1041,JUINGR.STN.( HERDILLA CO.),19.0559413919,73.0191283156
1042,SHIRAVANE VILLAGE,19.0514793365,73.0205874373
1043,NERUL NAKA,19.0461698788,73.0244691549
1044,SHIVAJI CHK.(NERUL),19.0441618504,73.0229885756
1045,NERUL NAKA,19.0461090298,73.0253703772
1047,NERUL NAKA,19.0464492393,73.0250506331
1048,VEEJ BHAVAN,18.9219451312,72.8266333618
1049,GRANT RD BRIDGE,18.9621488668,72.815833805
1052,RANI LAXMIBAI CHK.,19.0407367708,72.8625917179
1053,RANI LAXMIBAI CHK.,19.0464857821,72.8655034197
1054,MARATHI VIDNYAN PARISHAD,19.0535542407,72.8767901553
1057,NARMADESHWAR MANDIR,19.0385906145,72.9446719357
1058,DHOBI GHAT(TROMBAY),19.0346400072,72.948646227
1060,KIRTI COLLEGE / INDIA UNITED MILL,19.0197122314,72.8322960253
1063,NATIONAL(HINDUJA)HOSPITAL,19.0335801122,72.8387207856
1064,RANI LAXMIBAI CHK.,19.0453412957,72.8637814104
1065,RANI LAXMIBAI CHK.,19.0448955152,72.8640704359
1066,CENTRAL LABOUR INSTITUTE,19.0496701752,72.8662973536
1069,ST.ANDREW'S CHURCH,19.0547209577,72.8254502928
1072,HOLI FAMILY HOSPITAL,19.0548223674,72.8274780428
1073,CITYLIGHT CINEMA,19.0299419184,72.8416482504
1075,WORLI DAIRY,18.9976473565,72.8115873703
1076,VENUS BLDG/WATUMAL ENGG.COLLEGE,19.0030614932,72.812315766
1077,NATIONAL ASSO.FOR BLIND(NAB),19.0074061146,72.8144714194
1080,PRABHADEVI/RAVINDRA NATYA MANDIR,19.015571518,72.8297159732
1081,SHANTI BAUG,19.0560201993,72.8949027602
1086,GOVANDI STN.RD(W),19.0553696668,72.9159025739
1087,DEONAR BEST STAFF QUARTERS,19.0476218126,72.9142717909
1088,MOTI MAHAL,19.0592741922,72.8354645883
1089,PALI HILL NAKA,19.0597512377,72.8286460659
1090,D'MONTE GARDEN,19.0596295497,72.8255990764
1091,PERI CROSS RD.,19.0601974264,72.8231314441
1092,ADDL.C.P.OFFICE,19.0624283518,72.8224447986
1093,RIZVI COMPLEX(CARTER RD.),19.0650040193,72.8231529018
1094,RIZVI COLLEGE,19.0672754409,72.82261646
1095,SHERLEY GAOTHAN,19.0702769145,72.8224447986
1097,KHAR DANDA,19.0748398615,72.8229383251
1098,DANDPADA,19.0750832152,72.8262857219
2627,600 TENAMENT GATE,19.0540919042,72.9179195951
1102,VITHALBHAI PATEL RD.JUN.,19.0714374815,72.8357055875
1103,MILAN SUB-WAY,19.0894292768,72.8435230731
1104,JAMBLI MOHALLA,18.9556365319,72.8298168154
1105,SIKKA NGR.,18.9564785089,72.8222528327
1106,TEEN BAKDA,18.9538711698,72.8070255784
1107,PLAY HOUSE,18.9618174353,72.8215346577
1108,KHAMBATA LANE,18.9603935237,72.8241880807
1109,PRARTHANA SAMAJ,18.9575540836,72.8192702163
1116,THAKURDWAR,18.9519092404,72.8229234435
1118,LION'S GATE,18.9267996552,72.8339490684
1119,DR.SHYAMAPRASAD MUKHERJI CHK.,18.9255817986,72.8328547271
1120,HORNIMAN CIRCLE,18.9312244595,72.833777407
1123,NARAYAN DABHOLKAR MARG,18.9525197273,72.7952340635
1124,PREM NGR.,18.9500843804,72.7934101614
1125,MASTAN TALAO,18.9647755945,72.8306977291
1126,NAGPADA POLICE STN.,18.9664705953,72.8300765305
1127,VATSALABAI DESAI CHK.,18.9779617783,72.8113258483
1128,MAHALAXMI RACE COURSE/ZENITH HOUSE,18.9805141104,72.8221578043
1129,ZAKERIA MASJID,18.9528784466,72.8338359136
1132,JOHAR CHK.,18.9567121121,72.8284649821
1133,NAVJEEVAN SCTY.,18.9656254555,72.8192046981
1135,HUTATMA CHK./MUMBAI UNIVERSITY,18.9290336642,72.8312432222
1141,CAFE PARADISE,18.9617551599,72.8301577768
1142,ANJUMAN COLLEGE,18.9617957465,72.8255229197
1143,DADAR POLICE STN.,19.0139932169,72.8347674458
1145,SUNDER GALLI,18.9755912218,72.8309915282
1146,GARLIC CO.,18.9784523131,72.8288028457
1147,GRANT RD STN.(W),18.9639403683,72.8158832042
1148,SONAWALA BUILDING,18.9663146347,72.816548392
1149,GOVT.CLY./INDIAN.MEDICAL.ASSN.CHK,18.9787734289,72.81527406
1150,BANDRA STN(E),19.0551652143,72.8419007452
1152,MATUNGA STN.(W),19.030260856,72.847217688
1153,TATA POWER HOUSE( CENTRAL RLY.-W ),19.0308464277,72.8486600589
1155,ESTRELLA BATTERY/SHAHU NGR.,19.0347410759,72.85316617
1156,BHASKAR COURT,19.0553883149,72.8440035971
1158,GURU TEGH BAHADUR NGR STN,19.037573406,72.8627951362
1159,NARAYAN PUJARI NGR.,18.9951083074,72.8136890571
1161,HANUMAN MANDIR/D'SILVA SCHOOL,19.0195151146,72.8403845029
1162,VITTHAL MANDIR / WADALA MARKET,19.0178562959,72.8546949235
1164,JUMBO DARSHAN,19.1136474691,72.8531811789
1165,DIVINE CHILD HIGHSCHOOL,19.1124502421,72.8658905427
1166,J.B.NGR.,19.1116224941,72.8687418887
1167,MAROL PIPE LINES,19.1110547937,72.8714455554
1168,JOHN BACKER,19.113771628,72.8885687778
1170,MAROL LIONS CLUB,19.1097166351,72.8757800052
1172,MAJAS DEPOT/SHYAM NGR.,19.1392187507,72.8654855975
1177,VIKHROLI POLICE STN.,19.1188113169,72.936413914
1179,I.I.T.MARKET,19.1275578597,72.9189099261
1180,I.I.T.MAIN GATE,19.1250439855,72.9165066669
1181,PUNCH KUTIR,19.123884225,72.9106248513
1182,SHIPPING CORPORATION,19.1237059401,72.8976239154
1183,PINKY CINEMA,19.1232599226,72.8479708621
1184,CHINAI COLLEGE,19.1222056945,72.8508891055
1186,PARSI PANCHAYAT / DHOBI GHAT,19.123868128,72.8497733066
1187,SONA INDUSTRIES PREMISES,19.1253683585,72.8526057193
1188,RADHA SILK MILL,19.1256521844,72.8555668781
1189,PUMP HOUSE,19.1260171026,72.8570689151
1190,AGHADI NGR.,19.1264674264,72.8587908038
1191,SHER- E- PUNJAB CLY.,19.1257332774,72.861918349
1192,GURUDWAR CHK.,19.126260381,72.8637207935
1193,CANOSSA SCHOOL,19.1240522787,72.864302657
1194,HOLY SPIRIT HOSPITAL,19.1275400174,72.8675488117
1195,TAKSHILA,19.1307450074,72.8687686214
1196,MODEL TOWN,19.1326708963,72.8697556743
1197,POONAM NGR.,19.1358517493,72.8701666477
1198,DURGA NGR.,19.1369811428,72.8730424858
1199,NAMASKAR,19.1380809136,72.8705682972
1200,GREEN FIELDS,19.1396849967,72.8692406902
1201,FILTER PADA,19.1387944568,72.8933083444
1202,P.W.D.OFFICE,19.1272797609,72.8945099741
1203,JAIBHIM NGR.,19.1337670123,72.896741572
1204,MAHATMA PHULE NGR.,19.1374970664,72.8970848947
1212,VESAVA-YARI RD.BUS STN.,19.1394376925,72.8080467006
1214,SEVEN BUNGALOWS GARDEN,19.128470411,72.8170160076
1215,PICNIC COTTAGE,19.1304774171,72.8142908832
1216,MACHHALIMAR,19.1329709362,72.8123596927
1217,GANGABHUWAN,19.1356874101,72.8097847721
1223,DAHISAR BRIDGE,19.2548777202,72.8566198605
1224,NEW ERA TALKIES,19.1825734532,72.8467815179
1225,MALAD STN RD.-W,19.1849743817,72.8466128674
1226,N.L.VIDYALAYA,19.188572158,72.8464811105
1227,MILAP TALKIES,19.1918551404,72.8467815179
1228,BALBHARATI,19.199981874,72.8488177847
1229,KANDIVLI STN.(W),19.2058021041,72.8516543116
1230,POISAR DEPOT,19.2136184415,72.851416375
1231,SHASTRI NGR.,19.2179545466,72.8518026131
1234,BORIVLI STN(W),19.2284904001,72.8557937402
1235,BORIVLI BUS STN(W),19.2301638306,72.8564322811
1237,RAM MANDIR,19.2369185964,72.8551070946
1238,BHAGWATI HOSPITAL,19.2405819982,72.854559867
1239,TECHNICAL SCHOOL,19.2418941836,72.8543938023
1241,NAVA GAON,19.2508667158,72.8538303632
1242,KANDER PADA- DAHISAR BRIDGE,19.2538243346,72.8541307706
1243,RANI LAXMIBAI CHK.(BUS STN.),19.0436360771,72.8639456582
1245,RANI LAXMIBAI CHK./ SION BARRIER,19.0477663512,72.8635054587
1246,MAHARASHTRA WEIGHT BRIDGE,19.0503264051,72.8651133876
1247,KURLA LEVEL CROSSING,19.0524797133,72.8668295061
1248,KALPANA TALKIES,19.0773625373,72.8785625546
1249,OLD AGRA RD.,19.0782798581,72.8792656108
1250,GURU NANAK NGR.,19.0851340399,72.8926981135
1251,MINATAI THAKRE MAIDAN (ANACIN COMP),19.099238967,72.9171879979
1252,NIRMAL LIFE STYLE/HOECHST CO,19.1649796755,72.9378355997
1253,DUNNCAN CO.,19.16761455,72.9389943139
1255,MULUND GARDEN,19.1758320746,72.9493825702
1256,MAHARSHI ARVIND CHK.,19.1756685113,72.9523784102
1259,GAWANPADA,19.1739425468,72.9617877294
1260,POSTAL CLY.,19.0607766734,72.8925115169
1261,KANJUR MARG VILLAGE,19.1318419375,72.9427762319
1262,BHANDUP PUMPING CENTRE,19.1547640714,72.9565466897
1263,CHAINANI ELDER'S HOME,19.1674974112,72.9624314596
1264,NAVGHAR RD.,19.168591886,72.9603715231
1265,HANUMAN CHK.,19.1699701031,72.9589982321
1267,MULUND STN.(E),19.1716966922,72.9570024413
1268,MUNICIPAL HOSPITAL,19.1719386981,72.9595589397
1269,GOREGAON CHECK NAKA NO 2,19.1303759939,72.880349189
1270,MAROSHI NAKA / PICNIC POINT,19.135525174,72.8823662101
1271,MODERN BAKERY/RESERVIOR,19.1427469326,72.8787264525
1272,UNIT NO 6/AAREY MARKET,19.1562469729,72.8747782408
1273,UNIT NO 2 & 3,19.1649423597,72.8665814101
1274,VIJAY PRINTING PRESS,19.1011659986,72.8841244608
1275,SAHAKARI BHANDAR,19.1035225754,72.8326393481
1277,PARASMANI/MADHUKUNJ SCTY.,19.1086057292,72.8298479787
1278,STATE BANK,19.110511601,72.8298479787
1279,SUKHMANI HOSG.SOC.,19.1141002575,72.8297836057
1280,GAGANDEEP,19.1147092334,72.8360846159
1282,MANO-BINA APTS,19.1128527868,72.8383004339
1283,SHOPPERS STOP,19.1163197461,72.8422486456
1286,RANI SATI NGR.,19.1801009504,72.8469531792
1288,KANDIVLI STN.RD.(W),19.2043475075,72.8493594495
1290,KANDIVLI TELEPHONE EXCHANGE,19.2089580141,72.8506868142
1291,BORIVLI JAIL(W),19.2227124863,72.8535470647
1292,DHARAMSHI HALL,19.2263832834,72.8549354333
1293,BORIVLI TEL.EXCH.,19.233528163,72.8550371186
1294,PAI NGR.,19.2351489538,72.8550371186
1295,SHIVAJI NGR.,19.2441004559,72.8538303632
1296,MARY IMMACULATE SCHOOL,19.2472202631,72.8542166013
1297,SHATABDI HOSPITAL,19.2066480142,72.8501289147
1298,DAHISAR MARKET,19.25577212,72.859071161
1303,MUNICIPAL HOSPITAL,19.2530545486,72.8585081357
1304,DAHISAR STN.(W),19.2497322726,72.8587656277
1305,GOMANT NGR.,19.243897869,72.8589802045
1306,SAI AMRUT SCTY.,19.2416288782,72.8587656277
1308,MADHUR CLY.,19.1792497524,72.8396575707
1309,MUNICIPAL SCHOOL,19.1789254853,72.8445070046
1310,I.C.CLY.,19.2452820457,72.846577613
1311,L.I.C.OFFICE,19.242895659,72.8518545943
1312,MT.POINSUR CHURCH,19.2482802815,72.8500108406
1313,CITIZEN BANK,19.2454628465,72.8508127587
1315,DAHISAR BUS STN.,19.2558619014,72.8700551524
1316,EKTA NGR.,19.2006766822,72.8279707463
1320,CHARKOP NAKA,19.2089360301,72.8225864428
1322,YADAV NGR.,19.2075455465,72.8294750062
1323,DAHANUKAR WADI,19.2075498134,72.8356093373
1324,VAISHALI BHAVAN,19.2070533645,72.8377658333
1325,KANDIVLI VILLAGE,19.2052977917,72.8388769302
1326,MAHATMA GANDHI SWIMMING POOL,19.205736248,72.8422290291
1327,KALA MARUTI MANDIR,19.2057841142,72.8431684647
1328,DENA BANK,19.2045683053,72.8481466446
1329,KETAKI PADA,19.2559341778,72.8697141664
1330,DAHISAR CHECK NAKA,19.2555731327,72.8702746386
1331,ANAND NGR.MARKET,19.2554312579,72.8645119351
1334,ANAND HOSPITAL,19.2579836555,72.8629669827
1335,ORLEM CHURCH,19.1954148834,72.8367165373
1336,CHOKSI HOSPITAL,19.1923751528,72.8437117385
1341,BANDRA TALAO,19.0574082939,72.8384686624
1349,MOUNT CARMEL CHURCH/LILAVATI HOSP.,19.051161438,72.8278900301
1353,BANDRA TALKIES,19.0601922827,72.836418203
1354,BANDRA TALKIES,19.0595583115,72.8370062771
1356,KHERWADI,19.0609929024,72.8468276844
1360,KHAR STN (W),19.0697643812,72.8396216126
1361,MUNICIPAL OFFICE/BHABHA HOSPITAL,19.0571804857,72.8338540112
1362,SHANTI ASHRAM,19.2406253855,72.8468431701
1364,GORAI BRIDGE,19.2265250822,72.8283459215
1365,GORAI DEPOT,19.2329544206,72.8259462685
1366,VIVIDH BHARTI,19.2321254339,72.8305238753
1367,M.H.B.CLY.,19.2316982923,72.8346151681
1368,DON BOSCO SCHOOL,19.230107692,72.8415533043
1369,VAZIRA NAKA,19.2287794192,72.8455236113
1370,BABHAI NAKA,19.2285663774,72.8484094995
1371,MAHARASHTRA NGR.,19.2287085072,72.8528621352
1372,MT.POINSUR CHURCH,19.2446379091,72.8524527269
1373,JEEVAN BIMA NGR.,19.2440656023,72.8500441032
1374,L.I.C.OFFICERS TRAINING CENTRE,19.24289,72.85397
1378,GOKHALE BRIDGE,19.1152491651,72.8483746603
1381,ASALPHA VILLAGE,19.0971157294,72.8938886107
1384,SHANTI NGR.,19.1221473043,72.8642443302
1385,DATTA TEKDI/SHIV TEKADI,19.1390589961,72.8618523098
1386,PRATAP NGR.(MAJAS),19.1408834312,72.8566166378
1387,DATTA PADA,19.2214267195,72.86482501
1388,RAJENDRA NGR.,19.2216434129,72.8595531113
1389,BORIVLI STN(W),19.2308168048,72.8560586906
1391,SANTACRUZ STN (W),19.0824086115,72.8409111251
1398,S.N.D.T.,19.0852774242,72.8306353384
1399,UTPAL SANGHAVI SCHOOL,19.1089069929,72.8265284291
1400,BHAVANS COLLEGE,19.1248208129,72.8381799524
1401,SHAHAJIRAJE SPORT COMPLEX,19.1269697751,72.8369568651
1402,BANK OF INDIA,19.1273144174,72.8339957063
1403,DHAKE CLY.,19.127821243,72.8321503465
1404,OSHIWARA POLICE STN.,19.1480825186,72.8313974326
1405,SHANTIVAN RD JN.( OSHIWARA ),19.1516500888,72.83169784
1408,HIGHLAND GARDEN,19.1465824944,72.8287795966
1409,BORIVLI BUS STN(W),19.2307595724,72.8566091317
1414,THAKUR PAKHADI,19.2340771675,72.8460491555
1415,C.K.P.CLY.,19.2315446582,72.8469074624
1420,MOTILAL NGR.NO 2,19.1634441533,72.8357317568
1421,MILLAT NGR.,19.1496230697,72.8285650199
1424,AZAD NGR.,19.133101936,72.8376094287
1425,JU CHANDRA HSG.SCTY.,19.1341966389,72.8360752052
1426,BELE VILLA HOSPITAL,19.1344804496,72.8338436073
1429,ADARSH DAIRY,19.1931857531,72.8412226485
1432,CHARKOP SECT.NO.5,19.2154927914,72.8265112843
1433,CHARKOP SECT.NO.2,19.2154927914,72.8240221943
1434,CHARKOP POLICE STN.,19.2146610798,72.8210650266
1435,JAY GANGA,19.2118749883,72.8209505856
1436,CHARKOP VILLAGE,19.208854978,72.8193248766
1437,RANA & SONS,19.2107046188,72.8259338293
1438,GOKHALE HIGH SCHOOL,19.2236850268,72.8480324429
1443,GANESH MANDIR/KASTUR PARK,19.2238303671,72.8454047709
1445,HANUMAN MANDIR,19.2105781732,72.8241334737
1447,INDIAN EDUCATION SCHOOL,19.2128982492,72.8241334737
1450,VESAVA VILLAGE,19.1369239991,72.808025243
1451,VEERA DESAI RD.,19.1354698846,72.8369924057
1452,PALLAVI BLDG.,19.1308314178,72.8376094287
1453,SUVIDHYA SCHOOL,19.2299456087,72.8285928703
1455,RAM BAUG,19.1631603924,72.8436281801
1456,LOKMANYA TILAK NGR.,19.1632009297,72.8420832277
1457,C.C.I.CLY.,19.1629171684,72.8394653917
1459,HARI NIKETAN SCTY.,19.1634542876,72.8324594618
1460,AYYAPPA MANDIR,19.1657243569,72.8322556139
1462,BANGUR NGR POLICE CHKY/POST OFFICE,19.1630761537,72.8347223061
1463,SADBHAKTI MANDIR,19.1280671153,72.8496960285
1465,GANDBHIR VIDYALAYA,19.132907372,72.8498028069
1466,JOGESHWARI STN-E/ BARR.NATH PAI CHK,19.1354057645,72.850125182
1467,JOGESHWARI POLICE STN.,19.1417305265,72.8546312931
1471,DOMESTIC AIRPORT TERMINAL 1-A,19.093356656,72.8532481833
1472,SANTOSH NGR.(DINDOSHI),19.1678862079,72.8764221699
1473,VILE PARLE POLICE STN.,19.0950396565,72.8539348288
1480,VANRAI MHADA/NIRLON INDU.EST.,19.1553057748,72.8566422861
1483,SMALLSCALE INDUSTRIES,19.1595420704,72.8569641511
1484,ISHWARBHAI PATEL RD.,19.1614068167,72.8563633363
1485,SWATI STUDIO,19.1627242878,72.8527155321
1486,GOREGAON STN(E),19.1653168777,72.8504251158
1487,PERU BAUG,19.1663606963,72.8521524584
1489,"SESSION COURT,DINDOSHI",19.1757001489,72.867889473
1490,GOKULDHAM MARKET,19.175628429,72.8698990376
1491,WAGHESHWARI MANDIR,19.1757905659,72.8734610112
1492,HANUMAN NGR.,19.1733584961,72.8742334874
1493,MALAD STN-W(ANAND MARG CHKY),19.186336055,72.8483680533
1494,MADH JETTY,19.1445021324,72.8015259551
1495,KHARODI VILLAGE,19.1961444104,72.8193787383
1496,RATODI,19.1967928761,72.8154305266
1497,MALVANI AKASHWANI,19.1966307599,72.811739807
1498,MALVANI VILLAGE/MALVANI CHURCH,19.1966307599,72.8085640715
1500,I.N.S.HAMALA MAIN GATE,19.1929020435,72.7986077117
1501,KENDRIYA VIDYALAYA,19.1897406743,72.798779373
1502,J.J.HOSP.NURSING SCTY.,19.1865792444,72.7980068969
1503,MARSHAL WADI,19.183579883,72.7980068969
1504,AKSA VILLAGE,19.1808236649,72.7978352355
1505,AKSA BEACH,19.1785538036,72.7975777434
1506,YOGASHRAM,19.1703658297,72.7965477751
1507,MALATI COTTAGE,19.1696361885,72.7946595
1508,ERANGAL VILLAGE,19.1686633286,72.7918270873
1509,BHATI VILLAGE,19.1660690074,72.7901104735
1510,KAMAL BAUG/14TH BUNGALOWS,19.1618531483,72.7868489074
1511,MASTER WADI,19.1571507168,72.7870205687
1512,MADH BEACH/MADH CHURCH,19.1523670713,72.7902821349
1513,MADH MARKET,19.1500157371,72.7911404418
1514,MADH TEMPLE,19.1473400402,72.7907112883
1515,PASCAL WADI,19.1423939407,72.7964619445
1521,MARVE VILLAGE,19.1946042941,72.7993801879
1523,MALAD STN-W(SAINATH MARG CHKY),19.1895725907,72.8485972557
1524,ORLEM WELL,19.1948880008,72.8389052199
1535,OLD PUSHPA PARK,19.1885233988,72.8578265224
1536,S.K.PATIL AROGYADHAM(MALAD-E),19.1911197986,72.853919039
1539,KANDIVLI BUS STN.( E ),19.2026651822,72.8527305889
1540,E.S.I.S.HOSPITAL,19.2021788505,72.8555630016
1541,GROVEL CO.,19.2016519895,72.8590391445
1543,SAMBHAJI NGR.(KANDIVLI-E),19.2014898781,72.8607986736
1544,HANUMAN NGR.,19.200922487,72.869081335
1545,TRACTOR GATE NO 3/VASA HOSPITAL,19.2006387907,72.8721283245
1550,GAUTAM NGR.,19.2003550939,72.8778360652
1551,DAMU NGR.EXTN.,19.1975991566,72.8786085414
1552,DAMU NGR./MAYUR MARKET,19.1994229438,72.8786943721
1573,SAMATA NGR.BUS STN.(KANDIVLI-E),19.2068820479,72.8696114535
1583,OTIS CO.,19.2002740376,72.875561552
1588,NANCY CLY.,19.2372502443,72.8633653004
1590,GOKULANAND HOTEL,19.2442598908,72.86456693
1596,GORAI CREEK,19.2327855654,72.8266293078
1606,ASHOK VAN,19.2432359209,72.8661856335
1609,ASIAN PAINTS,19.1596885441,72.9376344947
1610,POST & TELEGRAPHS,19.1693971954,72.9457251809
1616,DIAMOND MARKET,19.0673816253,72.8655583989
1617,MAHARASHTRA NGR.,19.1408574956,72.9281502036
1618,SAHYADRI NGR.,19.1429048934,72.9282789496
1619,KOKAN NGR.,19.1451549747,72.9284291534
1622,JUNGAL MANGAL RD.,19.1497563967,72.9326992301
1623,SANTACRUZ STN (E),19.0806793114,72.8428488305
1625,NEHRU LIBRARY (VIDYANGRY),19.0743100856,72.8604836751
1627,RAMASHRAM,19.1193673548,72.9029454181
1628,VIDYA VIHAR BUS STN(W),19.0805602056,72.8962457675
1629,NAVSENA GATE/KIROL VILLAGE(VIDYAVIH,19.0822761732,72.8954083213
1630,INDIRA NGR./KHALAI VILLAGE,19.0815461429,72.89274757
1631,NAVPADA,19.0826590466,72.8898942966
1632,DOMNIC SCHOOL,19.1282471411,72.8648795078
1633,TOLANI COLLEGE,19.1298935546,72.8658074626
1634,VIDYA VIHAR S.T.WORKSHOP,19.0806538792,72.8899580726
1638,MARVE RD NAKA/ SWAMI SHIVANAND CHK.,19.1914429576,72.8463939475
1642,VAKOLA MASJID,19.0817171238,72.8561664267
1643,MILITARY OUTPOST,19.0794459001,72.8597927733
1644,THANAWALA LANE,19.1029023208,72.8452199297
1645,SHREE PARLESHWAR SCTY.,19.1044230174,72.8463464575
1646,BHUTTA COLLEGE,19.108687425,72.8486226713
1648,MADKEBUWA CHK.,19.0055418393,72.8401294339
1649,DEEPAK CINEMA,19.0062342426,72.830924483
1651,HINDUSTAN PETROLIUM CO.,18.981130508,72.8563738595
1652,I.C.I.,18.9796289726,72.8494001161
1653,ORDNANCE DEPOT ( REAY RD.- E ),18.9808058528,72.8512883912
1654,TATA OIL MILL/ HINDUSTAN LEVER LTD.,18.9811507989,72.8590346109
1659,SEWREE STN.(E),18.997788526,72.8545714151
1664,FLORA HOTEL/WATUMAL ENGG.COLLEGE,19.003304952,72.8138607184
1665,DHARAVI DEPOT,19.0517011671,72.8592997549
1670,RANI LAXMIBAI CHK./ SION BARRIER,19.0470439892,72.8630744135
1676,RAWLICAMP,19.0375507968,72.8691147608
1681,KAMANI OIL INDUSTRIES,19.1131438589,72.8902517891
1682,CHANDIVLI STUDIO/NAHAR ENTERPRISE,19.1141170461,72.8919684029
1683,PETROL PUMP,19.1149077565,72.8939425087
1686,SAHAR CARGO COMPLEX,19.0966700885,72.865493801
1687,SAHAR AIR INDIA HOTEL,19.1031382651,72.8703325061
1688,ST.JOSEPH TECH.SCHOOL,19.0809480692,72.8887051135
1689,HOLY CROSS SCHOOL,19.0825492399,72.8855579416
1691,TELI GULLY,19.1158075889,72.8504878581
1692,VISHAL HALL/PRAKASH STUDIO,19.1190920198,72.8507453502
1693,JUMBO DARSHAN,19.1133746351,72.8544789851
1694,MOHILI VILLAGE,19.1001977679,72.8914424361
1695,LOKMANYA TILAK NGR.,19.101900975,72.8901120604
1696,SUBHASH NGR.,19.0992753193,72.8979980087
1697,ST.ANTHONY CHURCH,19.1061489075,72.8893291092
1698,LUCKY HOTEL,19.1068180026,72.8917752838
1700,JUNGLESHWAR MAHADEO MANDIR,19.1037360875,72.8964959717
1701,NATRAJ STUDIO,19.1173821775,72.8534450749
1703,NEW QTRS( CHAKALA CIGARETTE FACTORY,19.1077392871,72.8592602199
1704,KONDIVTE CAVES/MAHAKALI CAVES,19.1303347378,72.8729394859
1705,BAMAN PADA,19.1082867235,72.8589383548
1707,SAIBABA MANDIR/SATYA SAIBABA MANDIR,19.1298076472,72.8700212424
1710,BAHAR CINEMA,19.1096889528,72.8539965915
1711,VILE PARLE RLY CROSSING ( E ),19.0967631935,72.8440213843
1712,AZAD NGR.,19.0918966899,72.8438282653
1713,MILAN TALKIES,19.0894431067,72.8382707282
1717,SARASWAT BANK,19.1069932576,72.8270136984
1720,AAREY HOSPITAL/ MUNICIPAL SCHOOL,19.1486660052,72.8765806853
1721,CENTRAL DAIRY,19.1512606002,72.8758511244
1722,UNIT NO 7(AAREY CLY.),19.1538551544,72.875293225
1725,FIRE BRIGADE/AGRI.INDU,19.1657701423,72.8610385911
1734,KRANTI NGR.,19.1943267371,72.8724745609
1742,MALAD STN-E(PODDAR PARK),19.1873777363,72.8500759285
1743,DR.SUCHAK CHK.,19.1893161848,72.8499064543
1751,RANI LAXMIBAI CHK.(NEAR RD NO.1),19.0469441005,72.8663449491
1752,SEEPZ VILLAGE,19.1302905189,72.8768933907
1753,SARIPUT NGR.,19.1331542355,72.8746573709
1754,KAMAL AMROHI STUDIO,19.135561334,72.8738464013
1756,SHIVAJI NGR.POST OFFICE,19.0669718783,72.9264994458
1757,NARAYAN GURU H'SCHOOL,19.0604383004,72.9105541924
1758,SHIVSENA OFFICE,19.0613306728,72.9076681355
1759,CHEMBUR STN.RD.NO 1,19.0636444621,72.9018048834
1760,AMAR MAHAL,19.0632675102,72.9026792267
1761,THAKKAR BAPPA CLY.,19.0570845271,72.887164882
1762,KAMGAR NGR.,19.0596288041,72.8851108144
1763,MUMBAI CENTRAL STN.(ON BRIDGE),18.9690245698,72.8180625062
1764,CHILDRENS HOME,19.042871233,72.9285197889
1765,SHELL CLY./ SAMAJ MANDIR HALL,19.0636064331,72.8935898798
1766,SAHAKAR NGR.(CHEMBUR),19.0640526115,72.895864393
1767,THAKKAR BAPPA CLY.,19.0590728295,72.8874807561
1770,PESTAM SAGAR/GLASS FACTORY,19.0701367413,72.9012273809
1773,SOMMAIYA COLLEGE,19.0741012308,72.9030388003
1777,SHIVNER CHK./GANESH MANDIR,19.0842864608,72.9154401369
1785,SAHAKAR TALKIES,19.0684634503,72.8995371145
1786,LOKMANYA TILAK NGR.,19.0658118732,72.8954605723
1787,MUNICIPAL SCHOOL,19.0673885927,72.8948378843
1788,DADOJI KONDEV NGR.(KHARDEV NAGAR),19.05755012,72.9091404297
1790,EVEREST CO.OP.SCTY.,19.0606953347,72.8902917112
1791,TATA NGR./SAMBHAJI NAGAR,19.0521651008,72.9208592962
1792,DEONAR MUNICIPAL CLY.,19.0533211855,72.9230908941
1793,DEONAR FIRE BRIGADE CLY.,19.0552074117,72.9241208624
1797,GOVANDI STN(E)/PATWARDHAN SCHOOL,19.0543581032,72.9144667698
1799,CHEMBUR LEVEL CROSSING/SHELL BRIDG,19.0630385681,72.8987826364
1801,UMARSHI BAPPA CHK.,19.0540709722,72.8893438052
1802,DHAIRYAVAN CHK.,19.0307831922,72.8455761761
1803,SANDESH HOTEL,19.0305421545,72.8463211726
1804,R.C.F.HOSTEL,19.0390901609,72.8943609663
1805,JIJAMATA NGR.,19.0284892225,72.8881540403
1808,GADKARI QUARRY,19.0225211977,72.907949445
1809,POLICHEM LTD./PEPSICO,19.0229269148,72.9046878789
1810,MHADA CLY.BUS STN.(MULUND-E),19.1658484282,72.9649887796
1811,MITHAGAR,19.1633056914,72.9548566741
1812,MHADA OFFICE (MULUND-E),19.1664970132,72.9640017267
1818,VRUDHI-SIDDHI SOC.(MULUND-E),19.1695280445,72.9551785392
1819,CHITRAGAN SCTY.,19.1656568361,72.9544489783
1826,BAINGANWADI,19.0573775594,72.925258119
1828,RANI LAXMIBAI CHK.,19.0454310652,72.8646129263
1829,KRISHNA BAUG/FINE ARTS AUDITORIUM,19.0602193174,72.8968012613
1832,GHATKOPAR STN.(E)-1,19.085590859,72.9087827368
1833,RAJAWADI HOSPITAL,19.0777567102,72.9038744516
1834,GANDHI MARKET,19.0811194623,72.9043946428
1835,DERASAR LANE,19.0811904378,72.9053119583
1836,AMRUT NGR.,19.1009471457,72.9122858388
1837,MANKHURD STN.( NORTH ),19.0491285423,72.9315184986
1839,JAIN MANDIR,19.0815938922,72.9087212924
1841,INDL.EST.,19.0996187933,72.9145292829
1850,GANESH MANDIR,19.088267445,72.9053012095
1851,BABU GENU MARKET,19.0891191121,72.9051724635
1852,HANUMAN MANDIR,19.0851370237,72.8988081178
1854,RAM BHAVAN,19.0905588252,72.9039064608
1856,KALA NGR.,19.0534226424,72.8453496346
1857,MAHARSHI ARVIND CHK.,19.1754469994,72.9527085093
1859,AGRA RD.NAKA,19.1779210664,72.9435843925
1860,HINDUSTAN CHK.,19.1775765298,72.9399151306
1861,MULUND CLY.,19.1750583509,72.9370719891
1862,POWAI CHK.,19.1734304065,72.934995201
1863,JAY SHASTRI NGR.,19.1717076695,72.9343943862
1864,AMAR NGR.,19.1663569361,72.9328923492
1870,HIRANANDANI GARDEN,19.1140554737,72.9089106509
1871,BHANDUP STN.RD.,19.1469185304,72.9365159749
1880,AIROLI BUS STN.,19.157341538,72.9982494515
1881,VASHI RAILWAY STN.,19.0643008047,72.9999696988
1883,JUHU NGR.( VASHI ),19.0853151787,73.0023180336
1884,JUHU VILLAGE,19.0866903452,73.0031250377
1885,VASHI SECT.28 & 29,19.0884785481,73.0042492241
1886,SAMATA NGR./BONKODE,19.0913579728,73.0055366844
1887,R.F.NAIK SCHOOL,19.0956161852,73.0057941765
1888,KOPAR KHAIRANE,19.0997526295,73.0047212929
1889,TERNA ENGG. COLLEGE(KOPAR-KHAIRANE),19.1109042925,73.002489695
1892,MAHAPE NAKA,19.1136925835,73.0088604944
1893,STANDARD ALKALI CO,19.1221266541,73.0054272668
1894,GHANSOLI VILLAGE,19.1261813426,73.0049981134
1895,TALAVALI NAKA / NOCIL CO.,19.1306413849,73.0035389917
1896,GOTHIVALI VILLAGE/TEL.EXCH.,19.1354256601,73.0040539758
1897,RABALE VILLAGE,19.1404530541,73.0026806848
1898,RABALE POLICE STN.,19.1479938581,73.0006636636
1899,DIVA VILLAGE,19.1481154812,72.9938830392
1900,AIROLI SECT.NO 16,19.1516846692,72.992731477
1901,AIROLI SECT.NO 17,19.1537724724,72.9929031384
1902,AIROLI SEWERAGE PLANT / PREMDAN,19.1552927008,72.9931606305
1903,AIROLI SECT.NO 4/SAI CLINIC,19.160765407,72.9953922284
1905,VASHI SEC NO.9/16 JUHU NGR.MARKET,19.0791910482,72.9981981605
1906,GARODIA PALACE,19.0750367469,72.9076140342
1907,ODEON CINEMA,19.0817633103,72.9117492599
1916,KRUPA BUILDING,19.0846951786,72.9029400828
1917,GELDA NGR.,19.0868725699,72.8990101612
1918,JAGDUSHA NGR.,19.0909506338,72.9074149473
1919,MHADA CLY.(CHANDIVLI),19.113407431,72.9023324585
1921,ASHIRVAD SCTY.,19.1142184195,72.8995000458
1926,VIKHROLI STN.(W),19.1111411276,72.9271827939
1932,VIKAS NGR.SCTY.,19.1284744569,72.8601855525
1933,INCOME TAX CLY.,19.1308869158,72.8607649097
1934,DATTA MANDIR(INCOME TAX CLY.),19.1307171279,72.8628680315
1935,BAMANDAYA PADA,19.1223607764,72.8864018252
1937,ASHOK NGR.,19.1171215781,72.8830157578
1939,GANESH PADA,19.12065778,72.8853074839
1940,"I.E.S.SCHOOL,JVLR",19.1274129114,72.8885171627
1947,PANDURANG WADI,19.1726083019,72.8532801904
1948,ORDINANCE FACTORY,19.1920854814,72.8547341499
1949,SANGITA TALKIES,19.1898157753,72.8513652954
1954,C.B.D. BELAPUR BUS STN.,19.0229193414,73.04959821
1955,URAN PHATA,19.032493978,73.0295138289
1960,TATA PRESS,19.0425365509,73.0280740438
1963,KONKAN BHAVAN,19.0243799149,73.0398993422
1964,FRUIT & VEGETABLE MARKET,19.0726370712,73.0094058691
1966,B.A.P.MARKET,19.0737478536,73.0101160933
1976,SAURASHTRA BANK/STATE BANK,19.0832618035,73.008457625
1978,VASHI SECT.NO 26,19.086710296,73.0117319181
1982,NERUL RLY. STN.,19.0338595196,73.0172012664
1984,SANPADA STN.,19.0676076157,73.0095775305
1997,RANI SATI MARG MUNICIPAL SCHOOL,19.1833250121,72.8555521554
1998,SHANTARAM TALAO,19.1855113056,72.8586558201
1999,HIRA PARK,19.1863523384,72.8602812387
2000,STATE BANK,19.1873554924,72.8613165714
2001,RAMESH HOTEL,19.1872237655,72.8626040318
2004,TAPOVAN ( PATHANWADI),19.1802845981,72.8590881508
2005,MHADA CLY.(MAJAS),19.1341894364,72.8665188435
2011,MILIND NGR.,19.0880317149,72.9037809333
2012,EMPLOYMENT EXCHANGE,19.0905258742,72.902391549
2013,HOMEGUARD TRG SCHOOL,19.085638909,72.8941303453
2016,SHIVAJI TALAO,19.1464928463,72.9289870528
2027,KANJUR MARG STN.(W),19.1289426028,72.9275240628
2028,HANUMAN NGR.,19.1404571828,72.9208507268
2029,EKTA NGR.,19.1406193543,72.9266442982
2030,BHANDUP PEOPLES SCHOOL,19.1398627826,72.9250608855
2031,PRATAP NGR.,19.1392495682,72.9232208901
2037,BANDRA PHATAK(E),19.0609860152,72.8463424834
2039,BANDRA RLY.TERMINUS,19.0628924351,72.8416647109
2040,KHAR STN (E),19.0673492187,72.841798409
2048,SRUSHTI,19.2701604514,72.8687538949
2058,S.K.STONE,19.2871288197,72.8670767897
2059,GHODBUNDER VILLAGE MARG,19.2822478828,72.891593672
2060,GHODBUNDER VILLAGE,19.2865637342,72.8948756195
2061,BHAYANDER STN.(E),19.3122005638,72.853884617
2062,BHAYANDER PHATAK(POLICE CHKY),19.2989158532,72.8550433313
2064,GODDEV NAKA,19.3042622689,72.858991543
2089,ADARSH NGR.,19.1880141255,72.863698373
2090,JIJAMATA VIDYALAYA,19.1880445239,72.8655651905
2092,APPAPADA,19.1897974882,72.8666702606
2111,WADALA TRUCK TERMINAL,19.0366233691,72.8753652677
2114,WADALA TRUCK TERMINAL MAIN GATE,19.0357447208,72.8797412645
2115,AMBASSADOR HOTEL,19.1063823964,72.8748815326
2120,SWAMI D.SARASWATI CHK.,18.9344665935,72.8371090869
2122,SHIVNERI BLDG.,19.2268897771,72.824719575
2123,PRAGATI HIGH SCHOOL,19.2283080273,72.8220159083
2126,CHARKOP SECT.NO.6,19.2174736314,72.8338077224
2127,DURGA MAHESHWARI MANDIR,19.2193377217,72.8327777541
2151,ODEON CINEMA,19.0815047575,72.9120550318
2158,KAMAL VIHAR SPORTS COMPLEX,19.2129335116,72.842842475
2160,PATEL NGR.,19.1765154378,72.8698858804
2161,RADHA MAHESHWARI CHK.,19.1845815099,72.8511747903
2163,SIR.A.JUNG MARG/RANI SATI MARG,19.1808525206,72.8580841607
2164,PRABHU HOTEL(KURAR VILLAGE MRG JUN),19.1793527946,72.8632769174
2165,INDIRA NGR.,19.1782178577,72.868340928
2170,SANGAM NGR.,19.0238378974,72.8765410611
2171,INDIAN HUME PIPE CO.,19.0175694919,72.8699535558
2172,BARKAT ALI DARGAH,19.0180766532,72.8655118177
2173,BHAGATSINGH NGR.,19.1559413149,72.835156885
2183,NANA CHK.,18.9618907606,72.8129220454
2190,SUVARNA HOSPITAL,19.2240735011,72.8431302576
2191,ROOP TALKIES,19.0805949772,72.8446181938
2218,ORKAY MILL,19.1211598943,72.870658
2219,KELKAR COLLEGE,19.162494944,72.9565518302
2224,YOGINGR./JAYRAJNAGAR,19.2348311778,72.8406419028
2226,SWAMI NARAYAN MANDIR,19.0806277027,72.9152254028
2228,CHH. SHIVAJI TERMINUS(BHATIA),18.9391939242,72.8381651484
2234,KALA NGR.(MHADA OFFICE),19.0543101192,72.8471602784
2238,NATURE PARK/P.M.G.P.CLY.,19.0516403201,72.8624754904
2240,REAY RD.STN.(ON BRIDGE),18.9761997397,72.8450442086
2241,GANESH NGR.,19.0177718895,72.8691411744
2242,SHANTI NGR.,19.0199628127,72.8745485078
2243,BHAKTI PARK GATE,19.0330671762,72.8787971269
2246,SIMPLEX MILL,18.980295982,72.829212014
2247,SHREE SWAMI SAMRTH NGR.MARKET,19.1370906919,72.8257432645
2250,SHIVAJI NGR.DEPOT,19.0654305571,72.9292031125
2251,DUMPING GROUND/NIRANKARI BHAVAN,19.067945337,72.9240103558
2252,JAFRI ENGLISH SCHOOL,19.0684726247,72.9222937421
2272,JAWAHAR NGR.,19.1600419792,72.8461562433
2274,DR.RAVINDRA KULKARNI CHK/SASMIRA,19.0100179603,72.8198702207
2275,POWAI VIHAR COMPLEX,19.117704876,72.9039753864
2276,HUTATMA CHK./MUMBAI UNIVERSITY,18.929088675,72.8297516822
2281,MAHAVIR NGR.EXTN/PARIJAT SCTY.,19.2150488764,72.838643871
2286,A.T.I.,19.0531882725,72.8810716401
2287,P.M.G.P.CLY.,19.1348381458,72.8700379017
2306,GATE WAY PLAZA,19.1233815638,72.9127301166
2307,BAYER HOUSE,19.1195700949,72.9124726245
2322,BORIVLI PHATAK (E),19.2317628337,72.857741015
2323,AMBAWADI,19.2397923076,72.8597039283
2324,PARVAT NGR.,19.2431553024,72.8601330817
2325,MANAV KALYAN KENDRA,19.2461130602,72.8609484732
2326,RAJASHREE CINEMA,19.2517853233,72.863909632
2327,ICICI BANK,19.0650088017,72.8618247639
2328,CITY BANK,19.069328532,72.868819965
2330,SWAPNA NGRY(YOGI HILL),19.1825192362,72.9420249861
2331,KADAM PADA,19.1786335215,72.9471658127
2332,ADISHAKTI NGR.(PIPE LINE ),19.1857618075,72.9470675391
2333,S.U.PUPM(MULUND-W),19.1847890428,72.9434197348
2335,MODEL TOWN,19.1843431904,72.9451578063
2353,PENKARPADA,19.2672409019,72.8763686175
2354,ATMARAM NGR.(SRUSHTHI),19.2706843556,72.8737936968
2355,GANESH MANDIR,19.2696338085,72.8715004769
2359,SARDAR NGR.NO 1,19.037611649,72.8653811259
2365,MANTRALAYA,18.9265431953,72.8274352406
2369,MACCHIMAR NGR/RAHEJA HOSPITAL,19.0455956719,72.8417785575
2370,MAHIM PHATAK,19.0432237892,72.845287387
2371,MAHIM PHATAK,19.0448194248,72.8445281699
2373,MAHIM BUS STN.,19.0432840233,72.8400750979
2374,MAHIM BUS STN.,19.0431499142,72.8403756599
2381,NAVRANG TALKIES,19.1239332158,72.8424418577
2393,KONARK APT.,19.1623447588,72.9427708642
2395,DHANVANTARI HOSPITAL,19.1760798914,72.9536460297
2396,MULUND COURT,19.1760732309,72.9601168392
2397,ANDHERI MARKET,19.1222866234,72.8457115953
2399,RAMWADI,19.1402347455,72.8585907436
2419,ELCO MARKET,19.0556437837,72.8330398714
2425,JIJAMATA BHOSLE MARG JN.,19.069988548,72.9083503381
2444,VIJAY NGR.,19.1220082339,72.8798422515
2447,SAINATH NGR.,19.1209453169,72.8756817795
2449,MAHIM KOLIWADA,19.0461851322,72.8383994742
2450,SHYAM NGR.,19.1391114899,72.8633339178
2458,MULUND DEPOT,19.1756902049,72.9469149379
2460,DHANVANTARI HOSPITAL,19.1762171489,72.9533522395
2470,M.M.R.D.A./FAMILY COURT,19.0557227254,72.8507531385
2473,SHIVPREMI NGR.,19.0971057203,72.8978692627
2474,KULKARNI WADI,19.1017895853,72.8986846542
2476,TUNGA VILLAGE,19.1182782777,72.8897034555
2487,DR.K.B.HEDGEWAR CHK.,19.163317656,72.9400242822
2488,BHANDUP VILLAGE JN.,19.1561829431,72.9498948114
2489,BHANDUP PUMPING CENTRE,19.1546221835,72.9571045892
2490,AIROLI TOLL NAKA,19.1534870763,72.9651297586
2491,BORIVLI STN-W (DIAMOND CINEMA),19.2286193868,72.8549115655
2493,BORIVLI TEL.EXCH.,19.2317928186,72.8561765223
2497,TAGORE NGR.JUN,19.1240931904,72.9383720415
2501,PRABHADEVI,19.0140761008,72.8300335524
2524,AIROLI SECT.NO 10,19.1494533288,72.9875959413
2525,A.H.ANSARI CHK.,18.9716241664,72.8322360732
2526,HIRANANDANI,19.1195861923,72.904359211
2539,BABULNATH TEMPLE,18.9572204217,72.8086162253
2540,CHANDAN CINEMA,19.1146058158,72.8266621276
2557,BORIVLI STN(W),19.2294277562,72.8561666167
2560,BORIVLI STN(W),19.2308075161,72.8561346528
2567,R.C.F.OFFICE,19.034810212,72.8913247057
2568,MAHUL MARKET,19.0157042908,72.8906210335
2569,MAHUL MARKET,19.0163736302,72.8903515885
2574,AIROLI SECT.NO 4/CORPORATION BANK,19.1524970882,72.9996656579
2575,AIROLI SECT.NO 5/SAHAKAR BAZAR,19.1499819752,72.9995979321
2577,SHEETAL SAROVAR,19.2825005346,72.8618978204
2578,JAMMU & KASHMIR BANK,19.2851740324,72.8682492914
2583,BORIVLI STN-W (DIAMOND CINEMA),19.2286727182,72.8553182154
2590,DNYAN SARITA,19.1787281949,72.9504608867
2591,AMBAJI DHAM,19.1782498826,72.9495122912
2592,BHANDUP STN.RD.,19.1450247087,72.9343736868
2604,SHIMPOLI NAKA,19.2233608473,72.8532037419
2605,GOREGAON CHECK NAKA NO 3,19.1359010658,72.8885715274
2607,GODREJ CO.,19.0971142007,72.927193727
2608,KANNAMWAR NGR.-1/PRAVIN HOTEL,19.1139657366,72.9343754352
2609,BHANDUP VILLAGE,19.1443704407,72.9502830719
2613,DHARAVLI VILLAGE,19.1723925938,72.7969769286
2614,RETREAT HOTEL,19.1598262546,72.7859906005
2615,VYAS WADI,19.154718372,72.7886513518
2616,SHIVAJI NGR.,19.1436912926,72.7901104735
2618,POLICE STN./CHHOTA KASHMIR,19.1599157118,72.8739628493
2620,FOREST CLUB,19.1142618791,72.9058405715
2621,SHETTY VIDYALAYA,19.1157520596,72.9059414225
2622,JALVAYU VIHAR,19.1127984387,72.9104985187
2628,VASUDEO B.PHADKE CHK.,18.9435534944,72.8288436982
2632,GREEN PARK,19.2233608473,72.8532037419
2633,C.B.I.QRTS.,19.0820776289,72.9127416773
2637,NANA CHK.,18.9619309944,72.8127918037
2640,MAHARASHTRA NGR.,19.0518261044,72.9374797522
2641,MAHARASHTRA NGR.,19.051994547,72.9364832283
2642,MAHARASHTRA NGR.,19.0514672069,72.9376848579
2645,KOPAR KHAIRANE EXTN.,19.1046594538,73.0030046791
2646,PARASIK BANK(NERUL),19.0409976353,73.0215294538
2648,HUTATMA CHK. ( O.C.S.),18.9294499818,72.8313215794
2649,BORIVLI STN-W (JAYA TALKIES),19.2269862886,72.8552350551
2650,DHARAMSHI HALL,19.2250918936,72.8545376807
2652,JAWAHAR NGR.,19.1596857912,72.8485141705
2653,RAJHANS SCTY.,19.2391167447,72.8582077283
2660,A.P.M.COMPLEX,19.0747851927,73.0095948816
2661,MATHADI BHAVAN/COMMODITY EXCHANGE,19.0797738726,73.0076851488
2662,DANA BAZAR,19.0863440998,73.0103459001
2663,SAMAJ MANDIR HALL/SECT.10(VASHI),19.0838311177,73.0012153048
2664,VASHI SECT.NO.10/15,19.0823139775,73.0001722664
2669,AIROLI SECT.NO 5,19.1480749402,72.9974879281
2670,AIROLI SECT.NO 9,19.1488857584,72.9922951715
2684,RANI LAXMIBAI CHK.,19.0437547562,72.8643269827
2685,RANI LAXMIBAI CHK.,19.0431994626,72.8639537522
2687,COLABA BUS STN.,18.9125744619,72.8231382846
2688,GOL MANDIR,18.9580717978,72.828078744
2689,KHAMBATA LANE,18.9603954142,72.8242002698
2691,JAMBLI MOHALLA,18.9556244943,72.8298529061
2693,BANK OF INDIA,19.0552381466,72.8305078661
2697,JAMBHULPADA,19.0946825007,72.8973218382
2700,BHANDUP STN.RD.,19.1478611129,72.9374806878
2701,MITHAGAR,19.1650854875,72.9638905813
2702,HELAN KELAR INSTITUTE,19.111796393,73.0061804146
2703,NANIPADA JUN.(MITHAGHAR MG-MULUND-E,19.1666297138,72.9544489783
2706,ASHIRVAD HOSPITAL,19.2566466903,72.8648981732
2711,DARPAN CINEMA/ SAI SERVICE,19.1155532829,72.855069454
2712,BAHAR CINEMA,19.1095187118,72.8538690721
2714,AGARWADI,19.0456601706,72.9256351172
2716,DOCKYARD RD.RLY.STN.,18.9654432759,72.8440535026
2717,JAWAHAR NGR.,19.159960903,72.8436671533
2719,GOVERDHAN NGR./ BORSAPADA,19.2126295735,72.8489579115
2720,PUNCHASHEEL APT.,19.2140762849,72.8404463154
2721,RASHMI-RATHI SCTY.,19.2152496447,72.835695168
2722,GANESH SCTY.,19.219459292,72.8295591033
2726,PRASANNA JEEVAN SCTY.,19.2305316436,72.8479374307
2727,JAMBHULPADA/SHIVASENA OFFICE,19.0934658729,72.8997680128
2733,MAHARSHI ARVIND CHK.,19.1756395856,72.9519264482
2735,A.T.I.,19.0534547827,72.8805227497
2744,GHODAPDEV,18.9808183686,72.8430554389
2746,VAKOLA POLICE STN(HANUMAN MANDIR),19.0771202561,72.8470850467
2747,GHATKOPAR STN.(E)-2,19.0846971852,72.9073213597
2749,GREEN LAWN ACADEMY,19.27796359,72.8791497888
2750,HITCO,19.2800384973,72.8767951982
2751,SWATANTRYAVEER SAVARKAR CHK-BHY(E),19.2953109743,72.8583478128
2752,ADARSH HIGH SCHOOL,19.024060573,72.876565529
2753,TAGORE NGR.NO.5,19.1249497184,72.9359922623
2764,NATIONAL COLLEGE,19.0635079464,72.8372218725
2765,KHODADAD CIRCLE (DADAR WORKSHOP),19.0166074522,72.8497254637
2766,N.SUBHASHCHANDRA BOSE KRIDANGAN,19.2121230086,72.8456105147
2767,MILLENNIUM BUSINESS PARK,19.0959309704,73.0201043145
2774,AGARWAL MUNICIPAL HOSPITAL,19.1785110772,72.9453634756
2775,MULUND RLY.STN.(W),19.1728325175,72.9566352633
2777,BEST NGR.,19.1531846346,72.8402638109
2788,BELA NIVAS,19.114663713,72.8608025501
2789,BELA NIVAS,19.1140722244,72.8620067041
2790,MULUND RLY.STN.(W),19.1727514476,72.9558198718
2791,ANDHERI STN.(W) (KUMKUM),19.1186373223,72.8460549181
2792,CATERING COLLEGE/SURYAVANSHI HALL,19.024,72.83519
2794,MAHIM PHATAK,19.0459985419,72.848590059
2796,MULUND RLY.STN.(W),19.1729804314,72.9567503543
2799,NOORANI MASJID (PATHANWADI),19.1795554611,72.8609594888
2801,HIGHLAND PARK,19.169802504,72.932312992
2807,BELA NIVAS,19.113558516,72.863061939
2813,DHOBI GHAT/DR.AMBEDKAR NAGAR,18.9109141318,72.8188038114
2815,VASANTRAO NAIK CHK.,18.9691397408,72.8157207947
2823,MUN.WARD OFFICE/AMBEDKAR GARDEN,19.0605731489,72.8987441037
2830,GANESH MANDIR,19.2156143646,72.8219622578
2838,HOLY ANGLE VIDYALAYA,19.1732941666,72.9626176023
2839,MULUND RLY.STN.(W),19.1732966198,72.9566406963
2844,DARPAN CINEMA/ SAI SERVICE,19.1131711567,72.8547990166
2847,SUNDER NGR.,19.2854260368,72.8700574891
2848,BEVERLY PARK,19.2887880957,72.8649076478
2849,JAIN MANDIR,19.2004067995,72.848669793
2850,NARSIPADA,19.2011656549,72.8641031551
2851,PIPE LINE,19.1774245281,72.9417765837
2852,SHIVAJI CHK.,19.1766645177,72.9383755426
2855,DR.SHAMAPRASAD MUKHERJI GARDEN,19.2308963296,72.8533233064
2856,AJARA BANK,19.2321169815,72.8257066279
2857,PEPSI GARDEN,19.2305974625,72.8241187601
2861,NANA CHK.,18.9621082803,72.8135378341
2862,BHARAT NGR.,19.1251050732,72.8227666637
2863,NATASHA TOWER,19.1263833882,72.8212670077
2864,NANA-NANI PARK,19.1279433144,72.8181961795
2870,KANDIVLI STN.RD.(W),19.2043028263,72.8497293151
2872,BHAVISHYA NIDHI BHAVAN,19.2153306937,72.8316611256
2873,THAKUR CINEMA,19.2100530792,72.8730108423
2874,THAKUR COLLEGE,19.2068413813,72.8727318925
2879,BORIVLI STN(E),19.2310835664,72.8577574471
2881,MULUND RLY.STN.(W),19.1740775353,72.9567557753
2883,MULUND RLY.STN.(W),19.1726284163,72.9558760108
2884,DHANVANTARI HOSPITAL,19.1763271912,72.9532152594
2888,YOGI HOTEL,19.2350337759,72.8437318076
2889,KANDIVLI STN.(W),19.2031869482,72.8511036787
2890,KANDIVLI STN.(W),19.206278829,72.8510869336
2891,NEW GAUTAM NGR.,19.0609540021,72.9164471269
2895,GEN.A.K.VAIDYA MARG JUN.,19.1737460623,72.8595460099
2896,SANJAY NGR.,19.1787853272,72.8659376687
2897,ASSISI NGR.,19.0607106277,72.9130138994
2899,ALLAHABAD BANK,19.1124709474,72.853166132
2903,LOKMANYA TILAK TERMINUS,19.0675305555,72.8890013975
2904,DERASAR LANE,19.0832928197,72.9054623193
2905,AAMCHI SHALA,19.0651426124,72.8962759638
2908,DR.AMBEDKAR GARDEN,19.0610727282,72.9006430859
2912,SHIVAJI NGR.JN.,19.0621602527,72.9173325197
2933,KANDIVLI STN.(W),19.2039512522,72.8502781788
2936,GAUTAM NGR.,19.1192135972,72.8702288466
2937,DR.AMBEDKAR CLY./18TH RD KHAR,19.0738461638,72.8293970844
2938,KHAR 14TH RD,19.0722237873,72.833152177
2939,10TH RD.,19.05760319,72.9004992502
2949,MITHA NGR.,19.1631603924,72.8376629473
2950,BANGUR HALL,19.1659067719,72.8331139208
2951,DWARKADHISH SCTY.,19.1668492458,72.8331139208
2952,KAVERI MAHIMA SOC.(GOREGAON-W),19.1841476917,72.8307751748
2953,KRISHNA LEELA C.H.S.,19.1677511781,72.834143889
2954,SUBHASH NGR.,19.0602167731,72.9047816885
2962,VEER KOTWAL UDN. (PLAZA),19.0212698657,72.8419348197
2977,HANUMAN MANDIR,19.1586102888,72.9434608246
2986,GANESH CHK.,19.2153359801,72.8337540782
2987,NIRLON SCTY.,19.1766150638,72.8369968194
2989,AMARNATH PATIL SPORT COMP/BANGANGA,19.0499543199,72.9144219946
2991,SHUBHAM PALACE(SECT.7 ),19.0977617818,73.0055712123
2992,FISHER ROSE MOUNT CO.,19.0445154783,73.0264765603
2993,CHHEDA NGR.,19.0679560648,72.9032403529
2995,KALA NGR.,19.0545892908,72.8477670142
2996,KALA NGR.,19.0530860673,72.8477919798
2998,TOWNSHIP MUNICIPAL SCHOOL,19.1963875853,72.8253868865
3000,SHIVAJI CHK.,19.110613571,72.8497491991
3001,M.S.E.B.OFFICE,19.1025470087,73.0038545985
3002,BIMBISAR NGR.,19.1465712725,72.8563816321
3005,SANTOSH NGR.EXTN.,19.1646838217,72.8798124821
3009,KHODADAD CIRCLE (PRITAM HOTEL),19.0167494583,72.8458791759
3011,MUMBAI CENTRAL STN.,18.9686004047,72.8206046488
3012,MUMBAI CENTRAL STN./RESERVE BANK,18.9695541473,72.8210767176
3013,MUMBAI CENTRAL STN.(S.T.DEPOT),18.9695354419,72.8210237006
3015,AMBAJI DHAM,19.1785457941,72.9491734264
3016,MAHARSHI ARVIND CHK.,19.1758928758,72.9513352183
3018,MULUND RLY.STN.(W),19.1726182825,72.9564553679
3020,AHILYABAI HOLKAR CHK.,18.9319342454,72.8282323545
3023,COM.GULABRAO GANACHARYA CHK.,18.9865286003,72.8317213534
3024,P.THAKRE CHK.,19.0190333155,72.8363535698
3025,DR.SHYAMAPRASAD MUKHERJI CHK.,18.9241635742,72.8320526878
3026,JIJAMATA UDN.,18.9805789633,72.8344069449
3028,RAM GANESH GADKARI CHK.,19.0247053398,72.8406820723
3029,RAM GANESH GADKARI CHK.,19.025273336,72.8404460379
3033,BHAGATSINGH NGR./SEJAL PARK,19.1560002992,72.8356465063
3034,DR.SHYAMAPRASAD MUKHERJI CHK.,18.9256914893,72.8309917691
3035,KHALSA COLLEGE,19.0247648681,72.8580123683
3036,WADALA FLY OVER BRIDGE,19.0188603232,72.8641147831
3037,DNYANESHWAR NGR.,19.0054430138,72.8540987689
3038,DNYANESHWAR NGR.,19.0047887257,72.8540773112
3039,WADALA CHURCH,19.0189419282,72.8586577977
3041,RUIA COLLEGE,19.0218122811,72.8512788099
3043,KAMANI,19.0851522284,72.8851317941
3044,KAMANI,19.0844019325,72.8846382677
3045,MAROLNAKA/MATA RAMABAI AMBEDKAR CHK,19.1089039349,72.8786822044
3046,MAROLNAKA/MATA RAMABAI AMBEDKAR CHK,19.108376776,72.8787251197
3047,"DR.AMBEDKAR UDN., POWAI",19.1256579082,72.8930508524
3049,DR.DATTA SAMANT CHK./SAKI NAKA,19.1037879245,72.886461069
3050,RAM GANESH GADKARI CHK.,19.0242817638,72.8397504182
3051,AMAR MAHAL,19.0657252138,72.8993779719
3056,LOKSHAHIR SATHE UDN./SUMAN NGR.,19.0550937966,72.8852502655
3058,BABASAHEB WORLIKAR CHK.,19.0127438913,72.8244768471
3059,JUHU HOTEL,19.1048924324,72.8265713445
3061,VILE PARLE,19.101550494,72.838895571
3062,VILE PARLE,19.1004352985,72.8395178434
3063,INDIAN OIL NGR.,19.1292353464,72.8313317415
3065,VAKOLA POLICE STN.,19.0803418143,72.8481097586
3066,VAKOLA POLICE STN.,19.0805040447,72.847036875
3067,KURLA DEPOT,19.0760730694,72.8769595987
3068,LOKHANDWALA COMPLEX JN.,19.1419404414,72.8307537025
3069,CHAKALA,19.1144179071,72.8593073443
3070,CHAKALA,19.1148436739,72.8595541075
3071,OMKARESHWAR MANDIR,19.2299981772,72.8631236696
3072,OMKARESHWAR MANDIR,19.2313371611,72.863350405
3073,BORIVLI STN(E),19.229248975,72.8587306183
3075,REAY RD.BRIDGE,18.9770909576,72.8439676719
3076,SHANTARAM PUJARE CHK.,18.9882505109,72.8365055539
3077,SHANTARAM PUJARE CHK.,18.9883316711,72.8358189084
3078,SHREE RAM MILL,18.9969894573,72.8224953309
3079,ACHARYA ATRE CHK.,18.9977604374,72.8179463045
3080,ACHARYA ATRE CHK.,18.9977568658,72.8177415469
3081,ACHARYA ATRE CHK.,18.998446687,72.8180848697
3082,MAHARANA PRATAP CHK./POST OFFICE,18.9694222316,72.8407526742
3083,A.H.ANSARI CHK.,18.9711812627,72.8321525124
3084,A.H.ANSARI CHK.,18.9690187292,72.833224167
3085,VASANTRAO NAIK CHK.,18.9685991752,72.8150332566
3086,VASANTRAO NAIK CHK.,18.9692891171,72.8161490555
3089,BABASAHEB WORLIKAR CHK.,19.0125498692,72.821500661
3090,SHREE RAM MILL,18.9959609084,72.8226816612
3097,MAHARANA PRATAP CHK.,18.9682238988,72.8403624352
3098,PT.PALUSKAR CHK.,18.9569521298,72.8161199953
3099,PT.PALUSKAR CHK.,18.9566071337,72.8156693842
3102,VASANTRAO NAIK CHK.,18.9690338385,72.8155827967
3103,P.THAKRE CHK.,19.0190891029,72.8365145024
3104,P.THAKRE CHK.,19.0192006775,72.8360876041
3105,MAHESHWARI UDN.,19.0252090803,72.8603288649
3106,VASANTRAO NAIK CHK.,18.968662869,72.815109251
3109,LOKMANYA TILAK HOSPITAL,19.035382715,72.8600056388
3110,LOKMANYA TILAK HOSPITAL,19.0367924685,72.860584996
3112,GEN.A.K.VAIDYA MARG JUN.,19.1751681505,72.8592980996
3114,POST & TELEGRAPHS,19.169741749,72.9451029084
3115,VASUDEO B.PHADKE CHK.,18.9428598221,72.8293418466
3118,VASUDEO B.PHADKE CHK.,18.9437528254,72.8287624895
3119,HUTATMA CHK./MUMBAI UNIVERSITY,18.9300934115,72.8297495424
3120,HUTATMA CHK. (PAY & PARK),18.9287433664,72.829677513
3121,PAREL S.T.DEPOT/SANT ROHIDAS CHK.,19.0110226958,72.8318395005
3125,PAREL S.T.DEPOT/SANT ROHIDAS CHK.,19.0093448479,72.8318750602
3127,NOORBAUG,18.9625266916,72.83773681
3128,JOHAR CHK.,18.9582143325,72.8314711697
3131,VASANTRAO NAIK CHK.,18.9695825075,72.8152028422
3132,VASANTRAO NAIK CHK.,18.9684765716,72.8163390796
3133,VASANTRAO NAIK CHK.,18.9686597176,72.816105363
3134,VASANTRAO NAIK CHK.,18.9688012508,72.8159742991
3135,DEEPAK CINEMA,19.0031164725,72.8300368532
3137,THAKURDWAR,18.9516251174,72.8227732398
3138,GOL MANDIR,18.9577843901,72.8284809806
3140,TWO TANKS,18.9617464088,72.8258047345
3141,TWO TANKS,18.9615231825,72.8285298588
3145,CHARNI RD.RLY.STN.,18.9507758176,72.820729338
3147,MAHATMA PHULE MARKET,18.9464951482,72.8352296966
3148,DR.SHYAMAPRASAD MUKHERJI CHK.,18.9256033912,72.8312324933
3149,Y.B.CHAVAN PRATISHTHAN/MANTRALAYA,18.9261937934,72.8263918148
3150,AHILYABAI HOLKAR CHK.,18.9330977924,72.8276953244
3154,J.V.P.D.BUS STN.,19.1167743131,72.8298176782
3155,J.V.P.D.BUS STN.,19.1161660815,72.8295172708
3156,UTPAL SANGHAVI SCHOOL,19.114422472,72.8277312772
3157,CHANDAN CINEMA,19.1160038861,72.827543165
3158,SAIBABA MANDIR/KOKAN BANK,19.0648175713,72.9194860563
3159,A.H.ANSARI CHK.,18.9701145153,72.8324946062
3160,A.H.ANSARI CHK./ NEW NAGPADA,18.967139193,72.8326984131
3162,A.H.ANSARI CHK.,18.9708841588,72.8324774857
3165,MAJESTIC CINEMA,18.9550444951,72.8189416792
3166,THAKURDWAR,18.952237024,72.8234544624
3168,MUSTAFA BAZAR/SAVLYA TANDEL CHK.,18.9758525258,72.8405370429
3169,"DR.AMBEDKAR UDN., POWAI",19.1248321827,72.8952877788
3170,"DR.AMBEDKAR UDN., POWAI",19.1262715849,72.8937857417
3172,ANAND NGR.,19.2577405717,72.8644690198
3178,SHREE KOTESHWARI MANDIR,19.2144399342,72.8688158674
3179,DATTANI PARK(INSIDE),19.2136800947,72.8725924177
3183,NOVELTY SILK MILL,19.2543946219,72.8655942933
3184,NOVELTY SILK MILL,19.2540270797,72.8661399024
3185,OMKARESHWAR MANDIR,19.2301235535,72.8629029885
3192,NOVELTY SILK MILL,19.2543135922,72.866795923
3194,OMKARESHWAR MANDIR,19.2313353595,72.8626086855
3196,JAGAT SATGURU INDL.EST.,19.1688296936,72.8543154977
3198,PRAVASI INDL.EST.,19.1713023655,72.8542511247
3199,BORIVLI STN(E),19.2287548328,72.8574637042
3201,VIDYA MANDIR,19.2548402843,72.8629764573
3202,SAVE NGR.,19.2552049163,72.860573198
3203,NOVELTY SILK MILL,19.2544791629,72.8645763081
3204,BORIVLI STN(E),19.2306187951,72.8576782809
3205,BORIVLI STN(E),19.2304060614,72.8577533828
3206,BORIVLI STN(E),19.2290790017,72.8575817214
3208,OMKARESHWAR MANDIR,19.2313763151,72.8624642533
3210,OMKARESHWAR MANDIR,19.230565468,72.8626730585
3211,BORIVLI STN-W (JAYA TALKIES),19.2292677245,72.8561346528
3212,ANTOP HILL EXTN.,19.0256927539,72.8701629511
3216,Y.B.CHAVAN MARG JN.(VASHI),19.0686002732,72.9972660321
3221,GIRIDHAR PARK,19.1958201765,72.8317383574
3223,MALAD STN-W(KASTURBA CHKY),19.1886260745,72.8470591353
3224,MALAD STN RD.(W),19.1860928652,72.8466728972
3226,MAHARANA PRATAP CHK.,18.9683608823,72.8403761036
3227,MAHARANA PRATAP CHK.,18.9686953194,72.8409724436
3231,MAHIM ( PARADISE ),19.0373794211,72.842185857
3232,MAHIM,19.0389706805,72.84189229
3233,MAHIM,18.9888317017,72.8282830072
3234,MAHIM ( PARADISE ),19.0371459309,72.8422639351
3235,MAHIM ( PARADISE ),19.0426217372,72.8401756763
3238,SEWREE RLY.PHATAK,18.9998782693,72.8554082643
3239,I.B.P.CO.,19.0041388296,72.8557086717
3240,KARTVYA NGR.,19.0068979915,72.8576398622
3241,GARLIC CO.,18.9797442582,72.8277779503
3242,SUNDER GALLI,18.9769440634,72.8299237175
3245,NAVRANG TALKIES,19.1243139781,72.8415917223
3246,NAVRANG TALKIES,19.1239085091,72.8424071138
3249,MAHESHWARI UDN.,19.0284162371,72.8569394847
3250,MAHESHWARI UDN.,19.0274831171,72.8568965693
3251,WADALA CHURCH,19.0186376332,72.8562330808
3255,WADALA STN.(W),19.017400161,72.8591942395
3256,WADALA STN.(W),19.0171567227,72.8584217633
3258,KANDIVLI STN.(W),19.2044241869,72.8513217177
3260,KANDIVLI STN.(W),19.2039339505,72.8506267197
3261,KANDIVLI STN.(W),19.2061974609,72.851499573
3262,AHILYABAI HOLKAR CHK.,18.9333194533,72.8277272066
3263,AHILYABAI HOLKAR CHK.,18.9325084892,72.8276842149
3264,AHILYABAI HOLKAR CHK.,18.9318936516,72.8272023862
3266,AHILYABAI HOLKAR CHK.,18.9334047442,72.8272466602
3268,SEWREE COURT,18.993175108,72.8511449813
3271,MILLENNIUM BUSINESS PARK,19.0969042588,73.0264128701
3280,GARWARE CHK.,19.1036554825,72.8541949421
3281,WORLI SEA FACE (N),19.0124373942,72.8169390517
3282,WORLI SEA FACE (N),19.015185775,72.8193488788
3283,GOREGAON TEL.EXCH.,19.1571300303,72.856449167
3286,PAYDHUNI,18.9538202063,72.8317372771
3289,MUMBAI CENTRAL STN.,18.96880965,72.8204669342
3297,NEW LINK RD.JN.,19.2127120006,72.8368191663
3301,EKTA SCTY.,19.1083693954,72.8757827548
3302,MAHARSHI ARVIND CHK.,19.175901583,72.9510909499
3304,BLOSSOM CO.,19.1169999322,72.880848533
3305,GHATKOPAR STN.(W),19.0863782672,72.9082562211
3307,GHATKOPAR POST OFFICE,19.0862718073,72.9086639168
3308,SARVODAYA HOSPITAL,19.0888757791,72.9069749079
3309,GHATKOPAR STN.(W),19.0869777885,72.9087384582
3314,CHAKALA,19.1147598887,72.8600255734
3315,CHAKALA,19.1143543963,72.8592745549
3316,SEWREE POLICE STN/DARUKHANA,18.9785738315,72.847769333
3317,DR.RAVINDRA KULKARNI CHK/SASMIRA,19.004429438,72.8170049561
3318,RAJAN PADA,19.1843576868,72.8357963187
3321,MARVE VILLAGE,19.195171707,72.8006676482
3327,MITH CHKY,19.1962646846,72.833601318
3331,PODDAR HOSPITAL/SIDDHARTH NGR.,19.0012684648,72.8156367015
3332,PODDAR HOSPITAL/SIDDHARTH NGR.,19.0017012285,72.8155988233
3333,KURLA S.T.DEPOT,19.0568187347,72.8840327989
3334,KURLA S.T.DEPOT,19.0563956613,72.8836398328
3335,BPCL SPORTS CLUB,19.0278758723,72.8954275521
3336,VISHNU NGR.,19.0230892014,72.90108299
3338,KAMAL TOWING CO.,19.0310248471,72.8871669873
3339,R.C.F.,19.0339760148,72.8897422024
3340,ST.XAVIERS TECH.INSTITUTE,19.0459740717,72.8436541098
3344,BMC WARD OFFICE,19.0280529474,72.8551356965
3345,LOKMANYA TILAK HOSPITAL,19.0361001367,72.857559366
3346,MATUNGA LABOUR CAMP,19.0382908182,72.8535682389
3347,PIONEER HIGH SCHOOL,19.0313695453,72.8544866019
3348,ANDHERI FIRE BRIGADE,19.1140370352,72.8421267233
3350,SANTACRUZ STN RD/KASHIBAI HOSP.,19.0841120016,72.8378212204
3353,BANDRA TALAO,19.056678154,72.8366447603
3354,MOTI MAHAL,19.0599489072,72.8341812407
3356,SARDAR NGR.NO 2,19.0370951761,72.867218394
3358,KANDIVLI STN.(W),19.2039586596,72.8503251862
3359,KALA MARUTI MANDIR,19.2052904524,72.8455549683
3360,DAHISAR PHATAK (W),19.2466530298,72.8589372891
3361,BORIVLI PHATAK (W),19.2365235343,72.8577356595
3362,AVDHUT NGR.,19.2581457112,72.861572234
3364,KHERANI BAUG,19.1049729156,72.8953157997
3365,RAWLICAMP,19.0381786687,72.8687160807
3366,SARDAR NGR.NO 1,19.0357969886,72.8639568279
3367,MAHARASHTRA KATA,19.1029958846,72.8883954466
3372,BANWARI COMPOUND,19.0454786261,72.8468026831
3375,INDIAN OIL NGR.,19.063863851,72.9125989571
1056,MANKHURD STN.(SOUTH),19.0449251895,72.9297382213
3377,ANUSHAKTI NGR.,19.0431901964,72.9237352525
3379,ANUSHAKTI NGR.BUS STN.,19.0426831117,72.9263530885
3380,ANUSHAKTI NGR.BUS STN.,19.0425405932,72.9262390529
3383,CANTEEN STORES DEPARTMENT,18.9817189438,72.8533268701
3392,YASHODHAM,19.0847704682,72.8325879865
3393,KALA NGR.,19.0555628221,72.8477240989
3396,ACHARYA VIDYANIKETAN,19.0276369934,72.8894176551
3397,STATE BANK,19.1164278022,72.8800058662
3398,ZAKERIA MASJID,18.95255881,72.8335730571
3402,P.MOHD.RAFI CHK.(SAGA DEPT.STORES),19.0545485611,72.8376961862
3403,SOMPURI MARKET,19.0807863188,72.8398918857
3408,ANDHERI BUS STN.(W),19.1194927479,72.8480226069
3409,ANDHERI STN.(W),19.1205630153,72.8457311576
3411,L.I.C.OFFICE,19.2445714695,72.8518641847
3412,RAMESHWAR BANK,19.2273476107,72.8410042149
3413,SHIMPOLI TEL.EXCHANGE,19.2245192459,72.8409844904
3414,BEST OFFICER QUARTERS,19.222959134,72.8375298052
3415,SWAMI VIVEKANAND VIDYALAYA,19.2255525585,72.832637456
3416,BEST OFFICER QUARTERS,19.2226079486,72.8377265003
3420,GOREGAON CHECK NAKA NO 1,19.1663606963,72.8574310457
3426,NIMKAR SCTY.,19.1787091332,72.9393213195
3428,SANJAY NGR.,19.1389736087,72.8545454624
3429,BANK OF BADODA,19.136150919,72.8520344048
3430,ANDHERI STN.(W),19.1191886374,72.8458768397
3431,ANDHERI STN.(W),19.1196106939,72.8454850949
3432,ANDHERI STN.(W) ( M.A ),19.120405076,72.8463059931
3433,IRANI BRIDGE,18.9598258042,72.8142731698
3434,IRANI BRIDGE,18.959458404,72.8144194193
3440,BIMBISAR NGR.,19.1492653184,72.8561273019
3441,N.S.C. COMPOUND,19.1519815241,72.856320421
3443,HINDU CEMETARY,18.9773563528,72.8469324838
3444,S.K.PATIL GARDEN,18.9497842282,72.8209175722
3445,SUKH SAGAR,18.9561533962,72.8136228082
3450,BALLARD PIER,18.9368547904,72.8404503905
3451,CHAR NAL,18.9576055198,72.8334023602
3452,RLY.ACCIDENT COURT,18.947584623,72.8401482063
3454,INS ASHWINI HOSPITAL,18.9009425795,72.8144693851
3460,VASHINAKA M.M.R.D.A.CLY.,19.037543051,72.9087883465
3461,VINAY HIGH SCHOOL,19.0332224931,72.9019648068
3464,CHEMBUR NAKA/SWAMI VIVEKANAND CHK.,19.0510332454,72.893175816
3466,NAHUR RLY.STN.,19.1570342603,72.947105314
3477,UMA MAHESHWARI MANDIR,19.0936226098,72.8845629393
3478,KRISHNA NGR.,19.0989757002,72.8878674208
3482,ACHARYA GARDEN/ DIAMOND GARDEN,19.0525325364,72.900813846
3483,KALA NGR.,19.0545892908,72.8463937232
3486,MULUND STN.(E),19.1717118929,72.9581343335
3502,WADIA MATERNITY HOSPITAL,19.0026013659,72.842981269
3504,VASHI BUS STN.,19.0741128864,72.9977135588
3505,VASHI BUS STN.,19.0743765206,72.998486035
3506,CEAT CO.,19.1557725748,72.9434608246
3511,D'SOZA NGR.,19.0936226098,72.8866657912
3515,M.H.B.POLICE STN.,19.2327774014,72.8408325535
3520,BAINGANWADI,19.0572786842,72.9188112255
3522,KASHI VILLAGE,19.2772248217,72.8901345503
3523,SHETHIYA NGR.,19.0961775155,72.8876957595
3529,TARDEO BUS STN/RUSHI MEHTA CHK.,18.9694139393,72.8152421153
3540,COLABA BUS STN./POST OFFICE,18.9116703775,72.8214156199
3541,ADV.PALJIBHAI BORICHA CHK.,19.1430477747,72.8291647328
3542,BADHWAR PARK,18.9206616493,72.8262862023
3544,VEEJ BHAVAN,18.9214466078,72.8264450609
3546,MAHARANA PRATAP CHK.(MULUND),19.1841023354,72.9535139303
3547,UNITY HOUSE,19.2455876928,72.8486017243
3548,SHIVAR GARDEN,19.2908944107,72.8631052034
3549,CHAITANYA HOSPITAL,19.2924741291,72.8614744203
3550,SHREENATH COMPLEX,19.2940538323,72.8598865525
3551,VIJAY NGR.,19.1200938136,72.8785141922
3552,KHERWADI JN.,19.0608002311,72.8464736329
3556,SIMPLEX MILL,18.9801273169,72.8303735429
3559,MITH CHKY,19.1953325114,72.8337729794
3560,JANTA CLY./SHIV MANDIR,19.1995880419,72.8337729794
3561,LALJIPADA POLICE CHKY,19.2033571343,72.8343094212
3562,SHANTI NGR.,19.2062750819,72.8346312863
3563,MITH CHKY,19.1956785961,72.8340058136
3564,KAMRAJ NGR.,19.2090087565,72.8350085225
3565,RENUKANGR.,19.2110571619,72.8355968815
3566,EKTA NGR.,19.2142181215,72.837399326
3576,MODEL TOWN,19.1342705252,72.8684071186
3577,GHATKOPAR STN.(W),19.0834176421,72.9049946549
3578,GHATKOPAR STN.(E)-1,19.0852157124,72.9081604643
3579,GHATKOPAR STN.(E)-2,19.0850686953,72.9078707857
3593,MAHESHWARI UDN.,19.0273489453,72.8559320428
3594,AZAD NGR.,19.2955727814,72.8569654325
3599,BHAYANDER STN.(E),19.3110665452,72.8531550562
3602,NATIONAL STOCK EXCHANGE,19.0619181159,72.8612530739
3603,BANK OF INDIA(BKC),19.0610257466,72.8635275871
3609,MULUND RLY.STN.(W),19.1727905561,72.95671286
3612,MAHAVIR NGR.EXTN.,19.2164874909,72.8393734318
3613,CHIKOOWADI,19.2197293929,72.8406608921
3614,SHIMPOLI TEL.EXCHANGE,19.2241869036,72.8410900456
3615,DON BOSCO (LINK RD.),19.2304272156,72.8407467228
3628,ANJANABAI MAGAR,19.0706191664,72.8755040456
3637,SUMER HOUSE,19.122323932,72.8726991631
3638,MAHARSHI ARVIND CHK.,19.1754516112,72.9526482479
3641,MAHATMA PHULE MARKET,18.9469690854,72.8352406657
3645,INDIAN OIL NGR.,19.1288050178,72.8313238912
3646,INORBIT MALL,19.1724548163,72.8360687206
3647,MILIND NGR.,19.1255466416,72.8932870522
3649,"AHILYABAI HOLKAR CHK.,EROSS CINEMA",18.932536676,72.8281513439
3650,JEEVAN BIMA MARG,18.9285127792,72.8253800857
3651,MANTRALAYA MAIN GATE,18.9273811993,72.8257588135
3652,NARIMAN POINT FIRE BRIGADE,18.9232442062,72.8262685813
3653,FREE PRESS HOUSE,18.9228243562,72.8235701309
3654,K.C.COLLEGE,18.9294312307,72.8281406151
3655,FREE PRESS JOURNAL MARG,18.9242220977,72.8248464378
3656,LAXMI TOWER(BKC),19.0682456878,72.8645146401
3662,"DNYANSADHANA COLLEGE,KOPARI",19.1823710767,72.965154438
3663,LOUISWADI,19.1972642074,72.9626463938
3664,CADBURY JN.(THANE),19.2046147257,72.9689005267
3665,DOMESTIC AIRPORT TERMINAL 1-B,19.093660814,72.8559303923
3666,PERU BAUG,19.1665191306,72.8544227861
3683,GATE WAY OF INDIA,18.9238946274,72.8335082332
1556,MAYUR CINEMA,19.2015428243,72.8452193863
1557,IRANI WADI,19.2008538493,72.8412711746
1558,IRANI WADI MARG NO.4,19.2015428243,72.8398978836
1553,SANTOSH NGR.(KANDIVALI-W),19.2045013313,72.8431165344
3685,MARATHON CHK.(TEEN HATH NAKA),19.1886909233,72.963720333
3686,C CROSS RD.JN.,19.1231249362,72.8712818647
3687,VASHI SECT.19,19.0854124968,73.0128477171
3694,MITH CHKY,19.1955770008,72.8343132781
3695,DR.SHYAMAPRASAD MUKHERJI CHK.,18.9257294702,72.8321742593
3704,MINILAND SCTY.,19.1469590717,72.9346304206
3705,SARVODAYANGR.,19.1479079026,72.930110241
3709,JIJAMATA BHOSLE MARG JN.,19.0707750064,72.9072529376
3710,UNIT NO.32,19.1644964536,72.8693709075
3712,B.A.R.C.GATE NO.6,19.0419019605,72.9331330846
3713,PRIYADARSHANI,19.0531914547,72.8825706479
3714,COOPERGE TEL.EXCH./Y.B.CHAVAN PRAT.,18.926845494,72.8280106933
3724,CEREMONIAL HALL,19.1814653867,72.9409091872
3725,VASANT GARDEN,19.1803101979,72.9395788115
3726,JARIMARI MATA MANDIR/S.T.OFFICE,18.9917588051,72.8141154633
3727,ACHARYA ATRE CHK.,18.9965876675,72.8183640824
3728,AIROLI OCTROI NAKA,19.1537100444,72.9638208406
3741,RAGHUVANSHI MILL,18.9913124326,72.8239430771
3742,CHAKALA,19.1152684261,72.8604832094
3744,SANGHARSH NGR.(CHANDIVLI),19.1055944199,72.9005307906
3745,SHOPPING PLAZA,19.1113323487,72.9028267615
3746,CALILIO BUILDING,19.1082302423,72.9022688621
3748,IMAX ADLABS,19.0310268563,72.8804830411
3750,BHAKTI PARK COMPLEX,19.0257527137,72.8787020543
3751,CHARKOP SECT.NO.8,19.2147927848,72.8134833157
3752,RUBY SCTY.,19.2151980302,72.8167862164
3753,POISAR DEPOT,19.2132171867,72.8504814062
3754,P.THAKRE NGR.MARKET,19.215452267,72.8297728505
3756,CIPLA CO./MILITARY CANTEEN,19.1183356247,72.9259394066
3757,CIPLA CO./MILITARY CANTEEN,19.1169191277,72.9259427281
3758,DMART SHOPPING CENTRE,19.1847392698,72.8358833574
3759,ERLA MASJID,19.1113638904,72.8373077032
3763,KANE NGR.,19.0283704174,72.8664293162
3765,NILKANTH VALLEY,19.0773105688,72.9006128854
3767,SOMMAIYA COLLEGE FRONT GATE,19.0734980385,72.8964930124
3768,MUNICIPAL GARDEN,19.0712267022,72.8947763986
3770,DR.AMBEDKAR NGR.NO.2,19.0763371651,72.8987246103
3017,MAHARSHI ARVIND CHK.,19.1758509153,72.9516273917
3772,POLICE GROUND,19.0841996793,72.9087599159
3773,SHANTI SUDHA PARK JAIN MANDIR,19.0752869437,72.9075828859
3774,VALLABH PARK,19.085740826,72.9095109344
3775,SURYA NGR.,19.1198794382,72.9236208203
3776,SURYA NGR.POLICE CHKY,19.1180142228,72.9246507886
3778,ANAND NGR.POLICE CHKY,19.1775703582,72.9676671316
3779,HARI OM NGR.MAIN GATE,19.1766988801,72.9685683538
3780,HARI OM NGR.(SOHAM SELES BLDG.),19.1766178121,72.970585375
3783,MUNICIPAL GARDEN,19.2254107317,72.8424865275
3784,KUMBHARWADA,19.037231749,72.8553019935
3796,B.S.E.S.,19.1337006797,72.8816366493
3799,DOCKYARD RLY.STN.,18.9661384521,72.8442769251
3800,SARVODAY MAHABUDDHA VIHAR,19.0676725181,72.8927994055
3801,PRARTHANA SAMAJ,18.9579193716,72.8195920814
3803,RELIENCE ENERGY OFFICE,19.0675711162,72.8985071463
3805,LOKMANYA TILAK VIDYALAYA,19.0664556919,72.8968334478
3806,TILAK NGR.RLY.STN.,19.0661514839,72.8901601118
3807,MUNICIPAL LIBRARY,19.0672263495,72.8916621489
3809,MUMBAI CENTRAL STN.,18.9688759396,72.8206560592
3810,MUMBAI CENTRAL STN.(ON BRIDGE),18.9689266706,72.8184888344
3815,NAVJEEVAN SCTY.,18.967120636,72.8141865711
3816,NAGPADA POLICE HOSPITAL,18.9657907881,72.8318360596
3826,COM.P.K.KURNE CHK.,19.0063373639,72.8215932802
3836,JAY MAHARASHTRANGR.,19.2216014783,72.8703638294
3837,AAI TULJABHAVANI CHK.,19.1418390851,72.8295091575
3853,DEONAR VILLAGE,19.0500859672,72.9198449744
3854,MAHALAXMI MANDIR,19.0479765724,72.9202312125
3855,TELECOM FACTORY,19.0455020559,72.9187291754
3859,KACHWADI,19.0523575931,72.9168409003
3862,ASMITA JYOTI,19.1972618987,72.8277086084
3863,MADH SONAPUR,19.1407722365,72.7912262725
3865,MULUND TOLL NAKA/MHADA CLY.,19.1673758025,72.9657144834
3870,LOKMANYA TILAK HOSPITAL,19.0357552922,72.8584876727
3872,LOKMANYA TILAK HOSPITAL,19.0356234444,72.8599521588
3873,PETROLEUM HOUSE,18.9292637786,72.825036763
3874,RAHEJA CHEMBERS,18.9240625307,72.8250828968
3880,KUMBHARWADA,19.0377228541,72.8535094928
3886,KORA KENDRA(ON BRIDGE),19.2209545221,72.8536307938
3887,KORA KENDRA(ON BRIDGE),19.2209272363,72.8545393993
3888,KORA KENDRA,19.2255740875,72.8546178467
3889,KORA KENDRA,19.2209677594,72.8527369548
3892,HIRADEVI MANDIR,19.1639610913,72.7904537963
3893,NATIONAL(HINDUJA)HOSPITAL,19.0321196196,72.8395790925
3898,PRINCESS STREET,18.9454446395,72.8271953675
3900,DURGA NGR.(KANDIVLI-E),19.1938809105,72.8682688572
3903,MAHAVIR NGR.,19.2114354548,72.8383426611
3904,PUNCHASHEEL GARDEN,19.210321002,72.8401665632
3905,SARASWAT BANK,19.2120230723,72.8416686002
3907,MAGATHANE DEPOT,19.2214799095,72.8656431416
3908,JAIN MANDIR,19.2848219296,72.9011412597
3909,VERSOVA BRIDGE,19.2848826905,72.904789064
3910,CHENA BRIDGE,19.2745327525,72.915324781
3911,KAJUPADA,19.2787457221,72.9222770668
3912,GAIMUKH,19.2852877629,72.9363103843
3913,BHAYANDER PADA,19.2835864523,72.9524894691
3914,OVALE VILLAGE,19.2749581053,72.959892366
3916,KASARVADAVLI,19.270623506,72.9647847152
3917,ANAND NGR.,19.2671782376,72.966523863
3918,MRUCHHALA COLLEGE,19.2656406007,72.9674240089
3919,PANCHAMRUT,19.2585103263,72.9701705909
3920,WAGHBIL,19.2534055076,72.9719730354
3921,DONGARI PADA,19.2491108546,72.9740329719
3922,PATLI PADA,19.24646807,72.9759114401
3923,MULLA BAUG,19.2382724333,72.9758139587
3924,MANPADA,19.2352436251,72.9759561223
3925,LOKIM CO.,19.2278292943,72.9770272391
3926,TATWADNYAN VIDYAPITH,19.2227454015,72.9775257529
3928,KAPUR BAWDI,19.2195238207,72.9779173554
3929,MAJIWADA,19.2146918483,72.977363714
3930,SIDDHIVINAYAK TOWER,19.2090009867,72.9736441162
3931,THANE STN.(E),19.185008135,72.975949793
3932,GARTAN PADA,19.2492579119,72.8659781947
3933,KASHIMIRA,19.2751183309,72.8868729842
3934,KOPARI CLY.,19.1851702627,72.9746623327
3936,BORIVLI STN (E)/SUKURWADI,19.2311530171,72.8582313204
3937,DR.RAVINDRA KULARNI CHK./SASMIRA,19.0101545786,72.8200569819
3939,AMAR MAHAL,19.062431561,72.8996302901
3940,BHARANI NAKA (ANTOP HILL),19.0255952473,72.8709962588
3941,FIRE BRIGADE JUN.(ANTOP HILL),19.0259806714,72.8676059466
3942,RAHEJA COLLEGE,19.0849833899,72.8322553926
3943,RAILWAY POLICE CLY.(GHATKOPAR,19.083912832,72.9058537645
3944,SAIBABA MANDIR(GHATKOPAR),19.0699759328,72.9007790251
3945,VALLABH PARK(EXTN.RD),19.0845769474,72.9090455932
3946,RLY.POLICE GROUND(EXTN.RD),19.080754445,72.9152951402
3947,KAPILVASTU BUDDHA VIHAR,19.0741327375,72.8605867072
3955,SIDHARTH NGR.,19.183818192,72.971205964
3958,NITIN CO.JUN.,19.1989476342,72.9635740937
3959,BRAHMAND-AZAD NGR.,19.2421216742,72.9757710433
3960,GARIB NGR.,19.2729123508,72.9623170829
3961,VIJAY GARDEN,19.2623996053,72.9682823158
3962,SWAMI VIVEKANAND CHK.,19.1821968952,72.9679443979
3963,GAVDEVI MANDIR,19.1850341542,72.9741242075
3965,PALI HILL NAKA,19.0595484243,72.830405595
3968,BRAHMAND-AZAD NGR.,19.2512158661,72.9801709425
3969,BANK OF INDIA,19.1271996361,72.8345086795
3970,SHAHAJIRAJE SPORT COMPLEX,19.1279526803,72.8376094287
3971,MULUND-W CHECK NAKA BUS STN.,19.1835445097,72.9534138696
3972,"MAHARANA PRATAP CHK./""R"" MALL",19.1829365243,72.9479636209
3977,GORAI PUMPING STN.,19.2195552022,72.84061971
3978,SHANKESHWAR BLDG.,19.0742832745,72.9035886169
3982,DHARAVI PUMPING STN.,19.0472876236,72.8614999244
3996,RAWLICAMP,19.0388395995,72.8684200237
4003,ICICI BANK/SINHGAD COLLEGE,19.1144008913,72.8968392944
4004,CHANDIVLI VILLAGE,19.1131802554,72.9037698723
4007,DINDOSHI DEPOT,19.1751975311,72.8636197335
4010,JAYGANESH TALKIES,19.171388844,72.9586978247
4012,MULUND STN(E),19.1713616747,72.9566319074
4015,MARVA INDL.EST.,19.1140115196,72.8874405838
4016,TATA POWER CENTRE,19.1166066591,72.886968515
4017,KALYAN NGR.,19.1180866813,72.8866251923
4018,VIVEKANAND NGR.,19.0235007598,73.0452305657
4019,R.B.I.CLY.(C.B.D.BELAPUR),19.0238253316,73.0523974282
4020,BHARATI VIDYAPITH,19.0251236127,73.0545431954
4021,BELPADA VILLAGE,19.0280852784,73.0590063912
4022,YERALA MEDICAL CENTRE,19.0314525876,73.0605084283
4023,BALBHARATI VIDYALAYA(KHARGHAR),19.0338461755,73.0623967034
4026,KHARGHAR RLY.STN.SUB-WAY,19.0271204242,73.0571277319
4027,BELPADA,19.0323390519,73.0657880761
4028,HIRANANDANI COMPLEX JUN.,19.0363148018,73.0710237481
4029,BHARATI VIDYAPITH (H'WAY),19.0249958349,73.0555742242
4031,GHARKUL,19.0364770753,73.0802934624
4032,TALOJA PHATA,19.032744745,73.0856149651
4033,KAMOTHE VILLAGE/MANSAROVAR,19.0272272335,73.0938547112
4034,KALAMBOLI CLY.,19.0231701229,73.1000345208
4035,MAHATMA GANDHI HOSP/PANVEL NAKA,19.0184637504,73.1058710076
4038,KALAMBOLI FIRE BRIGADE,19.0269026683,73.1055276849
4039,KALAMBOLI BUS STN,19.0372884404,73.104669378
4040,C.B.D.BELAPUR JUN.,19.0239409815,73.0399530389
4041,C.B.D.BELAPUR,19.0245556159,73.0417973382
4042,VRINDAVAN SCTY.(THANE),19.2017419759,72.9829808385
4043,RABODI POLICE STN.,19.2004450809,72.9849549443
4044,SHRIRANG SCTY.(THANE),19.2003234965,72.983731857
4045,KOLBAD,19.2043180045,72.9757437918
4046,BRAMHALA TALAO/MANORPADA,19.204034314,72.9727397177
4047,KHOPAT S.T.TERMINUS,19.201575414,72.9743598724
4048,MAKHAMALI TALAO,19.1983633017,72.9717007529
4049,VANDANA S.T.TERMINUS,19.1922607286,72.9695639822
4050,HARINIWAS,19.1918887241,72.9684261345
4051,WAGLE WARD COMMITTEE OFFICE,19.1864889178,72.955309683
4052,M.I.D.C./PASS-PORT OFFICE,19.1944189446,72.9511461577
4053,KISAN NGR.JUN.,19.194479739,72.9497728667
4054,WAGLE CIRCLE,19.1945797604,72.9495551364
4055,TATA MOTORS,19.1947229164,72.9485283217
4056,DNYAN SARITA (THANE),19.1949356963,72.9456601355
4057,DNYANODAY VIDYALAYA,19.1946621221,72.9451594672
4058,LOKMANYA NGR.(THANE),19.1935475557,72.944451364
4059,JAMA MASJID,19.285010838,72.8575190552
4060,GANGA COMPLEX,19.2872387217,72.8561672218
4061,LODHA COMPLEX,19.2890615131,72.8561457642
4063,BISHOP SCHOOL,19.2949955712,72.8484181419
4064,JANAKI RESIDECY,19.3044430387,72.8445335881
4065,MANDLI TALAO,19.2995421697,72.849383022
4066,BHAYANDER POLICE STN.,19.2949790264,72.8479980605
4067,MIRA-BHAYANDER MUNI. HEAD OFFICE,19.3008180299,72.8468402879
4068,JAIN MANDIR,19.3028836872,72.8496727006
4069,BALAJI NGR.,19.3062858895,72.849844362
4070,BHAYANDER RLY.STN.(W),19.3109042267,72.8525849064
4071,BHAYANDER PHATAK(ON BRIDGE),19.2950968331,72.8519801154
4076,RANI LAXMIBAI CHK.,19.0425509169,72.8637739969
4077,BHANDUP PUMPING CENTRE,19.1444914922,72.950355082
4085,SIDDHIVINAYAK MANDIR,19.0176205273,72.8306411547
4086,JOGESHWARI VIKHROLI LINK RD.,19.1250713585,72.9386530136
4087,JOGESHWARI VIKHROLI LINK RD.,19.1243009701,72.9380951142
4088,ANNABHAU SATHE CHK.(THANE),19.1948850345,72.9472194037
4089,DR.AMBEDKAR CHK/INDIRA NGR.,19.1950674171,72.9462323508
4090,SRUSTHI POLICE STN.,19.2714973064,72.8673169459
4091,ASMITA SUPPER MARKET,19.2728341506,72.8656432475
4092,POONAM SAGAR COMLEX,19.2733607831,72.8630046689
4093,GAURAV RESIDENCY,19.274438104,72.8612741478
4094,MIRA RD.SEC.NO.10,19.2760243027,72.859925493
4095,MIRA RD.MARKET,19.278890323,72.8577421748
4096,MHADA CLY.(HIRANANDANI),19.1183492372,72.907673183
4097,GUNDECHA PROJECT,19.1140768158,72.9037099151
4098,I.R.B.COMPLEX (POWAI),19.1135496733,72.9012637405
4099,KENDRIYA VIHAR(SECT.-12),19.0373350724,73.0655295235
4100,NAVRANG HOTEL,19.0388766546,73.0668598992
4101,GOKHALE VIDYALAYA(KHARGHAR),19.0407427614,73.0659157616
4102,SHIVAJI CHK.(KHARGHAR SEC-8),19.0439475479,73.0681902749
4103,SHILP CHK.,19.0473145354,73.069821058
4104,JALVAYU VIHAR(KHARGHAR),19.0503163703,73.0703360421
4106,SANPADA POLICE CHKY,19.062904376,73.0100773193
4107,VIVEKANAND SCHOOL,19.062904376,73.0138109543
4108,SANPADA TEL.EX/ST.NIRANKARI BHAVAN,19.0585641969,73.0141113617
4109,JUINGR.RLY.STN.,19.055927584,73.0154417373
4110,ANIRUDDHA BHAVAN,19.0548729271,73.016643367
4111,CHINCH0LI TALAO (NAVI-MUMBAI),19.0454618457,73.0177591659
4112,GANESH CHK.(NERUL-E),19.0405532682,73.0150125839
4113,SWATANTRYAVEER SAWARKAR CHK.,19.0404315661,73.0175016739
4114,SARSOLE BUS STN.,19.0406344029,73.014154277
4115,TERNA VIDYALAYA,19.0383220487,73.0145405151
4116,NERUL VILLAGE,19.036739893,73.0151413299
4117,TERNA ENGG. COLLEGE(NERUL),19.0295997209,73.0169437744
4118,NERUL GYMKHANA,19.0250558152,73.0144117691
4119,SEAWOOD-DARAVE RLY.STN.,19.0212015121,73.0174587585
4120,DON BOSCO VIDYALAYA(NERUL),19.0183614421,73.0160854675
4121,NERUL SECT.-42,19.0175499846,73.0170296051
4123,SAIDHAM SCTY.(NERUL),19.0105712866,73.0159567215
4124,NERUL SECT.-46/48,19.008096213,73.0164287902
4125,SHANTARAM PATIL CHK.,19.0734906916,73.0025242187
4126,MAHARASHTRA STATE CO-OP BANK,19.0696780735,73.0022667267
4127,AMRUTA VIDYALAYA,19.0521956911,73.016772113
4130,SHAMRAO VITHAL BANK,19.0612818925,73.0044983246
4132,NERUL SECT.-02,19.0444882551,73.0178020813
4133,GAVDEVI CHK.(SARSOLE),19.042946725,73.0177162506
4135,SEAWOOD DARAVE RLY.PHATAK,19.0233518185,73.0153559066
4137,NATHU JOMA PATIL CHK.,19.0606328946,73.014025531
4138,JUIPADA VILLAGE,19.0495589769,73.0171583511
4139,JUINGR.SECT.-25,19.0467599577,73.0175445892
4140,GANESH SCTY.(NERUL),19.0263946575,73.0158279754
4141,"AROGYA HOSPITAL/""D"" MART",19.0188888873,73.015527568
2942,AMBEWADI (GOLIBAR),19.068915767,72.8424157294
2943,GOLIBAR MARG(A.HAMID CHK),19.0734990311,72.8433813246
2944,4TH RD.( GOLIBAR ),19.0747360851,72.8426732214
4144,RAILWAY SANKALP CLY.,19.0554627806,72.9329427124
4145,ANNABHAU SATHE NGR.,19.0563551799,72.930024469
4146,BANUBAI TANDEL MARKET,19.0162516443,73.017887912
4147,ADARSH MARKET,19.0136955074,73.0179308273
4148,DHARAN TALAO/ASHTAGANDHA STY.,19.0121131172,73.0178020813
4149,L & T GATE NO.6,19.1152776743,72.8888451486
4150,HIRANANDANI EST.,19.2514228617,72.981284525
4151,THANE MUN.COMMISSIONER HOUSE,19.2480802944,72.97509649
4152,HIRANANDANI GATE(THANE-W),19.2486272646,72.9782482644
4153,INDIAN BANK(HIRANANDANI THANE-W),19.2498528765,72.9794606229
4163,S'CRUZ STN.RD/KASHIBAI HOSP.,19.084454718,72.8380990668
4164,S'CRUZ STN.RD/KASHIBAI HOSP.,19.0841606823,72.8376806422
4165,SARVODAY HOSP/GHATKOPAR POST OFFICE,19.0894098113,72.908063102
4166,SARVODAY HOSP/GHATKOPAR POST OFFICE,19.089561894,72.9080416444
4174,BANDRA BUS STN.(W),19.0541800426,72.8394094919
4176,GHANSOLI VILLAGE,19.1220246957,72.9994709139
4177,PEER MEHMOOD SHAH BABA DARGAH,19.1130229262,73.0068952685
4178,GHANSOLI RLY.STN.,19.1162263148,73.0055219774
4179,PANCHAVATI,19.1196323814,73.0047495012
4180,SIDDHESHWAR SOC/GHARONDA,19.1238493189,73.0028612261
4182,SAIBABA NGR.(GOLIBAR),19.0702339754,72.8439821394
4183,MACCHI MARKET(GOLIBAR),19.0716941325,72.8443040045
4184,MUSLIM CEMETARY(GOLIBAR),19.0730934376,72.8440465125
4188,JOHAR CHK.,18.9549250857,72.8321763991
4189,JOHAR CHK.,18.9546409678,72.8327128409
4190,CHAR NAL,18.9583704733,72.8363037471
4191,KHAMBEKAR STREET,18.9583953436,72.8377339362
4192,DONGRI,18.9583547562,72.8367683409
4193,CHINCH BUNDER,18.9588879618,72.8384065989
4194,SANDHURST RD.STN.,18.9617145733,72.8389125146
4195,NOORBAUG,18.9615002501,72.8369400023
4196,DR.M.IQBAL CHK.,18.9583953436,72.831918907
4197,UMARKHADI,18.9625509227,72.8373980883
4198,NOORBAUG,18.9625554992,72.8379055976
4204,KALA NGR.,19.0543293745,72.8461185235
4207,RANI LAXMIBAI CHK.,19.0431707916,72.8641044837
4211,GKD (ONLY ALIGHTING),19.087815445,72.9183803156
4213,MANEKJI COOPER SCHOOL,19.0879011222,72.8272427576
4216,COCACOLA CO.,19.2809516237,72.9285866987
4217,POUSHMATA MANDIR,19.2802224735,72.955795027
4218,SHREE KRISHNA NGR.,19.2354545388,72.8630764258
4220,VEER KOTWAL UDN.(NEAR UDYAN),19.0211075773,72.8418060737
4225,CANARA BANK(KHARGHAR),19.0351038096,73.0636412484
4226,RAJKUMAR,19.1265643127,72.8384624784
4227,BEST QUARRIES,19.109510478,72.9034909225
4228,LAL BAHADDUR SHASTRI COLLEGE,18.9835045295,72.8583479654
4229,BHOIWADA,19.0055873617,72.8452532927
4230,GOVANDI STN.RD.(E),19.052834414,72.9142288755
4231,NEW INDIA QTRS.,19.1150323165,72.8359293612
4232,JUHU SHOPPING CENTRE,19.1160764531,72.833064762
4233,VILE PARLE STN.(E),19.0986356202,72.8445779001
4244,BANDRA-WORLI SEA LINK TOLL PLAZA,19.0454214247,72.8287912523
4245,DR.K.B.HEDGEWAR CHK,19.1637683861,72.9383861798
4246,DR.K.B.HEDGEWAR CHK.,19.1634846258,72.937656619
4249,GANDHI NGR.,19.1252206397,72.92864539
4250,GANDHI NGR.,19.1254869612,72.9240081524
4251,BHANDUP PUMPING CENTRE,19.1548575611,72.9566691111
4252,VEER KOTWAL UDN.,19.0214676544,72.8420903878
4255,SAMBHAJI NGR.(DAHISAR-E),19.2399944828,72.8671726865
4256,SAIBABA MANDIR/MUNICIPAL MARKET,19.2420001302,72.8671083134
4257,SHAILENDRA NGR.(MHADA CLY.),19.2447148057,72.8630528134
4258,MANAV KALYAN KENDRA,19.2458695421,72.8614005727
4264,BORIVLI TEL.EXCHANGE,19.2315774789,72.8563915569
4265,BORIVLI BUS STN.(W),19.2320839838,72.8562198956
4266,VAZIRA NAKA,19.2302697752,72.844385717
4268,JAWAHWR NGR.,19.160035464,72.8459698819
3139,ALANKAR TALKIES,18.9580834302,72.8254721405
4269,BEHRAM BAUG,19.1456221872,72.8368251218
4270,GOREGAON CHECK NAKA NO 1,19.1662961798,72.8578130983
4271,GOREGAON CHECK NAKA NO 1,19.1663164481,72.8588859819
4289,NEW SHAKTI MILL,19.202066198,72.979150644
4290,THANE CIVIL HOSPITAL,19.1988442121,72.9792686612
4291,R.T.O.OFFICE (THANE),19.1983895681,72.9819311155
4292,KALWA BRIDGE,19.1970891777,72.9851019636
4293,SHIVAJI CHK./KALWA NAKA,19.1963596549,72.9875910536
4294,MANISHA NGR.(KALWA),19.1968107898,72.9905738259
4295,SUKUR PARK/SAHYADRI SCTY.,19.197864541,72.9934062387
4296,KHARIGAON NAKA,19.2018616417,73.0010344411
4297,PARSIK SHIV MANDIR,19.202874833,73.0037166501
4298,RAJ PARK,19.2063557111,73.0092679661
4299,PARSIK NGR.,19.2081388749,73.0117999715
4300,RETI BUNDER - KHARIGAON(KALWA),19.201575414,73.0216525818
4301,DADLANI PARK (THANE-W),19.2132337409,72.9939398978
4302,KAPUR BAWDI,19.2187666814,72.9779529099
4303,YASHASVI NGR./VARDHAMAN GARDEN,19.219150281,72.9845843527
4304,BALKUM NAKA,19.2210435861,72.9888355504
4305,ASHOK NGR./VILO'S SCTY.,19.2154220751,72.9917512152
4306,ST.XAVIERS HIGH SCHOOL,19.2485418143,72.9780251753
4307,BRAHMAND PHASE-3,19.2538088443,72.9812867415
4308,BRAHMAND PHASE-6,19.2584274852,72.9762227308
4309,SWASTIK PARK,19.255510464,72.9811150801
4310,BRAHMAND AZAD NGR.BUS STN,19.2533834366,72.9727304947
4312,GAWANPADA FIRE BRIGADE(MULUND-E),19.1722806178,72.9669375708
4313,AMRUT NGR.,19.1013121185,72.9115991933
4314,MARINE LINES RLY. STN.,18.9466356634,72.82347592
4315,GORAI DEPOT,19.2326927173,72.8301751881
4332,S.V.P.VIDYALAY,19.2009349053,72.8477513916
4334,VASHI JUN.-Y.B.CHAVAN MARG JN.,19.0685645362,72.9969965309
4335,BANDRA TALAO,19.0560494199,72.8370309984
4336,SAIBABA MANDIR(AMRUT NGR.),19.0978223343,72.9076790608
4338,VATSALABAI DESAI CHK,18.9772021045,72.8095412893
4339,VASTU ANAND,19.2095978128,73.0142890614
4340,SUBHASH TOWER,19.2103317293,73.0166770841
4342,PAREL S.T.DEPOT/SANT ROHIDAS CHK,19.0092689331,72.8333520845
4343,PAREL S.T.DEPOT/SANT ROHIDAS CHK,19.0093399393,72.8325259642
4344,DHANMILL NAKA,19.0093196518,72.8307235197
4345,LOKMAT OFFICE(MAHAPE),19.1129626918,73.0105341928
4346,D.A.K.C.GATE NO.2,19.1123544462,73.0167569177
4347,CHH.SHIVAJI MAHARAJ VIDYALAYA,19.1051364281,73.0179585473
4357,SHINDEWADI,19.0107028727,72.8427454782
4366,AAKASHGANGA SOC.,19.0397005347,72.8607675504
4367,DHARAVI POLICE STN.,19.0377532802,72.8585627746
4368,KAMRAJ VIDYALAYA,19.0396954637,72.8597322177
4370,MUMBAI CRICKET ASSO.COMPLEX,19.0674750349,72.8630555183
4371,DENA BANK/NAMAN CHEMBER,19.0623642987,72.8649437935
4378,CRISIL HOUSE,19.1169887978,72.9103509741
4381,NORTH BOMBAY SCHOOL,19.0869214978,72.8959757051
4382,WAMANRAO MURANJAN VIDYALAYA COMPLEX,19.1748748412,72.9674954702
4383,JAIN MANDIR,19.1769015498,72.9664225866
4384,NILAM NGR.PHASE-2,19.1758476644,72.9644913961
4385,NILAM NGR.BLDG.NO.3/4,19.1747532379,72.9631181051
4386,JEEVAN JYOTI ENGLISH SCHOOL,19.1785634323,72.97182992
4387,KOPARI TEL.EXCHANGE,19.1810359581,72.9730315496
4388,PREM NGR.,19.1828599288,72.9736752798
4397,GANDHI NGR.,19.1249497184,72.9300699448
4407,SAHAKAR BAZAR,19.1490714291,72.9995583695
4408,ISHWAR NGR.(BHANDUP-W),19.1438474988,72.9338686732
4409,MALAD STN-W(SAINATH MARG CHKY),19.1899027973,72.8475526618
4418,CASTLE MILL,19.2056736519,72.9775737835
4419,GOKUL NGR.,19.2080241918,72.9773162914
4420,MUKTAI NGR.,19.211590464,72.9774021221
4423,GAZDAR MUNICIPAL SCHOOL,19.0757875297,72.827178215
4424,NARENDRA APT.,19.0780588035,72.8288948288
4425,GAZDAR BANDH,19.0804922766,72.8298818817
4426,SANTACRUZ POLICE CHKY- BEAT NO.2,19.0833718402,72.8313839187
4427,SANTACRUZ STN.RD.,19.0826113969,72.8382289161
4429,BRAHMAND PHASE-5,19.257212066,72.9789693129
4432,PAWAR NGR.(THANE),19.2183018176,72.9697723896
4433,PAWAR NGR.BUS STN.(THANE),19.2185303786,72.969145565
4434,EDENWOOD,19.2320565144,72.9698643896
4435,LOKPURAM,19.2259468021,72.9698240529
4436,VASANT-VIHAR,19.2156936972,72.9549734877
4437,VASANT-VIHAR TEL.EXCHANGE,19.2286204628,72.9697363661
4439,GANDHI NGR.(THANE),19.2191179708,72.9672951983
4440,MAJIWADA,19.2138935009,72.9773803688
4441,OSWAL PARK,19.2196549066,72.9644173668
4442,SAHYADRI SCHOOL,19.1992425132,72.9962386514
4443,KHEWRA CIRCLE,19.2323584993,72.9700178192
4444,MAHARASHTRA NGR.(THANE),19.2324496698,72.9728527354
4445,SHREE SIDHHISAI MANDIR,19.2134617133,72.8350596372
4446,GAURAV GARDEN COMPLEX,19.2130550867,72.8330577765
4447,ROCK AVENUE,19.2115151287,72.8311695013
4456,SANT RAJINDER SINGH ASHRAM,19.110711582,73.0021316653
4457,BLOSSOM CO-OP.HSG.SCTY.,19.1115631336,73.0053074007
4458,KINGSTON SEZ(HIANANDANI),19.1143429777,72.9088596659
4461,DON BOSCO SCHOOL,19.2302865333,72.8422912614
4462,BALKUM PADA NO.1,19.2111872169,72.9939756655
4469,MANTRALAYA,18.9293537829,72.8240155258
4470,MANTRALAYA,18.9293131884,72.82360783
4471,MANTRALAYA,18.9292625297,72.824401497
4472,MANTRALAYA,18.928428774,72.8238003762
4475,REAY RD.RLY.STN.,18.9759562412,72.8436065446
4477,ASHOK NGR.,19.1192054971,72.8853703276
4478,SHITAL GARDEN,19.2854795876,72.8614837112
4480,AIROLI RLY.STN.(E),19.1589428102,73.000051896
4481,DIGHE VILLAGE,19.1740933187,72.9985820454
4482,SATHE NGR.,19.1782277975,72.9968654317
4483,VITAVA,19.187104416,72.9905997914
4485,MUMBRA RLY.STN.,19.191116977,73.0227004689
4486,MUMBRA POLICE STN.,19.1841455963,73.0223571461
4487,RETI BUNDER NO.2,19.1978854187,73.0232583684
4488,DATTA WADI,19.2007015299,72.998813572
4490,BAINGANWADI,19.0594425715,72.9234136239
4491,MURDHA GAON,19.2993003236,72.8352428116
4492,RAIGAON,19.2974967223,72.8219493882
4493,SALSAR NGR.,19.2950664545,72.8180011766
4494,MORVAGAON,19.2919880635,72.8140529649
4495,DONGRI-KUMBHADI,19.2905298581,72.8015216844
4496,UTTAN TEL.EXCHANGE,19.2820234009,72.7977022187
4497,TALAVLI(UTTAN),19.2784586589,72.7971872346
4498,HOTEL SANVERSE,19.2643609648,72.7951272981
4499,HOTEL MAXWELL,19.2585270815,72.7932390229
4500,RAMRATNA VIDYAMANDIR,19.2523688684,72.789634134
4501,KOLYACHI BAWDI,19.2442656042,72.7849992769
4502,GORAI CROSS CIRCLE,19.2413078132,72.7840980546
4503,KHAJURWADI,19.241186259,72.7869304673
4504,JUIPADA/GLOBAL PAGODA(VIPASHYANA),19.2414698853,72.7924665467
4505,GORAI CREEK-W,19.2364860942,72.8180011766
4506,ESSEL WORLD GATE,19.2390793052,72.8028091447
4508,TARODI,19.2868842877,72.7999338166
4509,UTTAN PHATA,19.2753799557,72.7954706208
4510,MEGA MART,19.0901375752,73.0052064318
4511,OUR LADY OF SALVETION SCHOOL,19.0172249471,72.835283327
4518,WADALA GATE NO.4/SIWS SCHOOL,19.0209908336,72.8593229856
4519,V.J.T.I.COLLEGE,19.0243785722,72.8571557607
4521,CHARKOP SEC.NO.9/AKSHARA VIDYALAYA,19.21837,72.8183573689
4522,SAI CHITRA SCTY.,19.2166274713,72.821232697
4523,CHARKOP EKDANT SCTY.,19.2177216194,72.8211039509
4527,GHATKOPAR STN.(E)/HAVELI BRIDGE,19.0837404657,72.9054460687
3427,COLABA BUS STN.,18.9112790953,72.8210592755
4531,GHANSOLI RLY.STN.,19.1168554104,73.0077446954
4532,CANARA BANK(BKC),19.0643112644,72.8633988411
4533,BANK OF BARODA JN.(BKC),19.0656903513,72.8612530739
4535,SAINATH NGR.,19.2696089193,72.9654080641
4537,P.THAKRE NGR.BUS STN.,19.2213456736,72.8288347397
4538,MUNICIPAL GARAGE(WORLI),18.9957502658,72.8186999602
4539,AMRUT ANGAN,19.204901197,73.0188228513
4552,NANA CHK..,18.9619665076,72.8138539585
4555,COAL BUNDER,18.9859393883,72.8574896585
4556,SEWREE STORE,18.9888611718,72.8562880288
4557,INDIRA NGR.,18.9917829041,72.8550005685
4558,GADI ADDA,18.9946234279,72.8538847696
4563,KANDIVALI STN.(W),19.2063086884,72.8510213103
4579,STANFORD SCTY.(THANE),19.2490918987,72.9788073213
4580,MADHANI CIRCLE,19.2588889127,72.9756747746
4581,GARDEN COURT CIRCLE,19.2602866297,72.9767047428
4583,SWASTIC REGALIA,19.2622110033,72.977155354
4584,GONDHALEWADI,19.2636593326,72.9775998878
4585,DAMYANTI SMRUTI,19.2644189408,72.9786144757
4586,WAGHBILGAON,19.2659989146,72.9825269196
4591,TAPESHWAR MANDIR,19.1346036527,72.884537485
4592,MUKUND CO.,19.1822405747,72.9951917332
4595,Y.B.CHAWAN PRATISHTHAN,18.9265933374,72.8272770919
4596,GANDHI NGR./CHETANA COLLEGE,19.0597419908,72.8477186567
4597,AIROLI NAKA,19.1658240499,72.9996978444
4603,VOLTAS,19.21707152,72.9552409935
4604,SUBHASH NGR.(THANE),19.2198076284,72.9626114148
4598,KALPATARU EST.,19.1398268974,72.8674597034
653,KURAR VILLAGE,19.1878110026,72.8583872956
692,ALANKAR CINEMA,18.9580819447,72.8269468518
4014,AHILYABAI HOLKAR CHK(ONLY SUN/HOLI),18.9320688943,72.8281315621
1232,KORA KENDRA,19.2203049109,72.8527038354
1035,A.P.M.COMPLEX,19.075576091,73.0117406488
4614,BUSA UDYOG BHAVAN,18.9981865291,72.850179386
4615,LALIT CLINIC,19.1875907923,73.0214988392
4616,LODHA COMPLEX,19.2111435777,72.9831498989
4617,SAIFEE HOSPITAL,18.9518984107,72.8186337563
4618,KUMBHAR TUKDA,18.9533126261,72.8259435523
4619,CHARNI RD.RLY.STN./PARSHI AGYARI,18.9502763749,72.820440139
4620,AHILYABAI HOLKAR CHK (E),18.9332960354,72.8278850965
3404,SANTACRUZ STN.RD.,19.0791444982,72.8377382955
4630,RAILWAY CLY.(KANDIVALI),19.2008133213,72.850669635
4632,SARSWAT BANK (KANDIVALI-W),19.1984626783,72.8489101059
4633,JAIN MANDIR,19.1997595889,72.8485238678
4638,AMBIKA MILL B.STN/H.U.RAKHANGI CHK.,18.9886489133,72.8226052565
4639,ATRIA SCTY.,19.2198676543,72.9639528084
4640,RUTU TOWER,19.2200297476,72.9632232475
4641,BHARAT BIJALI CO.,19.160341377,72.9999660653
4643,SHIVSHAKTI NGR.,19.0557616855,72.8810038296
4644,BUNTARA BHAVAN,19.058438864,72.879866573
4645,KAMGAR NGR.,19.0590473076,72.8857459752
4646,NAIK NGR.,19.0582563305,72.8854670254
4647,KURLA S.T.DEPOT,19.057546476,72.8842010228
4648,KURLA S.T.DEPOT,19.0567757733,72.8842224805
4649,ANJANABAI MAGAR,19.0764110064,72.8760133897
4651,ANJANBAI MAGAR,19.0760122314,72.8747387297
4652,SANATAN DHARM VIDYALAYA,19.0437380411,72.8933342049
4653,BYCULLA STN (E),18.9762107696,72.8335718269
4657,GANDHI NGR./CHETANA COLLEGE,19.0591230165,72.8476518188
4658,STUDENT REQUEST STOP,19.1743382639,72.7975777434
4660,DHARAVI DEPOT/KOLIWADA,19.0508789358,72.857976457
4661,HIGHWAY APT.,19.0483422838,72.8682287285
4666,CHH. SHIVAJI TERMINUS,18.9390160596,72.8352678438
4668,RIDDHI SIDDHI,19.137604892,72.8073300378
4669,SEEPZ VILLAGE/REL.ENGY. TR.CENTRE,19.1293579726,72.8836740151
4673,KURLA S.T.DEPOT,19.0563628253,72.8838935565
4674,S.G.BARVE MARG JUN.,19.0585735208,72.8860393237
4678,HIRANANDANI POWAI BUS STN.,19.1176679862,72.9060122329
4680,ALIKA NGR.,19.1974474894,72.8725174763
4681,MHADA CLY.,19.1959479145,72.8724316456
4682,SEEPZ VILLAGE,19.1295984557,72.8763961163
4683,SEEPZ VILLAGE,19.1304127588,72.8763252594
4709,RADHA NGR.,19.1929487238,72.8665522434
4713,RAM GANESH GADKARI CHK,19.0239977642,72.8395090193
4716,ANAND NAGAR (APPAPADA MALAD-E),18.9911659514,72.84762297
4749,HOTEL TRIDENT,19.069715224,72.8722999508
3899,DAVA BAZAR(KALBADEVI),18.9460737917,72.8286544892
