stop_id,stop_name,stop_lat,stop_lon
1,COLABA BUS STN.,18.9118892648,72.8230460117
2,SASOON DOCK,18.91587,72.82619
3,STRAND CINEMA,18.9173370318,72.8273949847
4,COLABA DEPOT,18.92086,72.83053
5,DR.SHAMAPRASAD MUKHERJI CHK.,18.9256313577,72.8318061063
6,HUTATMA CHK./MUMBAI UNIVERSITY,18.9280061692,72.8313447664
7,HUTATMA CHK.,18.94381,72.83924
8,KHADI BHANDAR,18.9364462942,72.8338694154
9,CHH. SHIVAJI TERMINUS,18.9409747781,72.8345966953
10,MAHATMA PHULE MARKET,18.9451049251,72.8340495246
11,CHAKALA MARKET,18.9488290732,72.8349614757
12,ZAKERIA MASJID,18.95213,72.83402
3155,J.V.P.D.BUS STN.,19.1161660815,72.8295172708
14,JOHAR CHK.,18.95962,72.83155
15,DR.M.IQBAL CHK.,18.96319,72.83201
3159,A.H.ANSARI CHK.,18.972684893,72.8330645987
18,BYCULLA STN(E),18.9766620689,72.8333435484
19,JIJAMATA UDN.,18.98102,72.8346
20,JAIHIND CINEMA,18.9855509964,72.8356015161
22,SANT JAGNADE CHK.,18.9910708053,72.8356901624
23,BHARATMATA CINEMA,18.9966634532,72.8366944146
24,PAREL WORKSHOP,19.0013298657,72.8378102136
25,MADKEBUWA CHK.,19.0053063574,72.8396126581
26,HINDMATA CINEMA,19.0083495266,72.8413721872
28,CHITRA CINEMA,19.0136151515,72.844661453
29,KHODADAD CIRCLE,19.0178662902,72.8477425792
30,VEER KOTWAL UDN. (PLAZA),19.02095,72.84218
31,RAM GANESH GADKARI CHK.,19.0251271702,72.8404614906
3147,MAHATMA PHULE MARKET,18.9464951482,72.8352296966
33,SHITALADEVI TEMPLE,19.0347321062,72.8423390369
37,R.C.CHURCH,18.90023,72.81373
39,PILOT BUNDER,18.9047,72.81579
40,AFGHAN CHURCH,18.9062909571,72.8165447284
41,COLABA BUS STN.,18.912522949,72.8224455882
42,KHADI BHANDAR,18.9356910915,72.8334011266
43,JIJAMATA UDN.,18.9784882913,72.8337727019
44,MAHIM,19.04012,72.84161
3199,BORIVLI STN(E),19.2287548328,72.8574637042
46,AKSHAYA,19.0520944249,72.8323961412
3149,Y.B.CHAVAN PRATISHTHAN/MANTRALAYA,18.9261937934,72.8263918148
48,UNIT TRUST OF INDIA,19.0497416652,72.8282118951
49,BND RECLAMATION BUS STN.,19.0479973563,72.8270317232
50,MANTRALAYA,18.9286867079,72.8246703809
53,SWAMI D.SARASWATI CHK.,18.9352074179,72.8372271041
54,COM.GULABRAO GANACHARYA CHK.,18.9863670871,72.8316745739
3150,AHILYABAI HOLKAR CHK.,18.9330977924,72.8276953244
57,DEEPAK CINEMA,19.0039888648,72.8308951601
3212,ANTOP HILL EXTN.,19.0256927539,72.8701629511
63,KHERWADI JN.,19.0616975349,72.8462830433
64,CARDINAL G.SCHOOL/TEACHER'S CLY.,19.06831,72.84679
66,VILE PARLE SUB-WAY,19.0913002166,72.8445839533
67,GUJRAT SCTY./DAYALDAS RD.,19.09708,72.85107
68,SATHE COLLEGE,19.09753,72.84911
70,HANUMAN SCTY.BLDG NO.5,19.10481,72.85206
71,MATRUCHAYA,19.10361,72.85001
73,GARWARE CHK./ KOLDONGRI NO.2,19.1100458671,72.8517662203
3234,MAHIM ( PARADISE ),19.0371459309,72.8422639351
76,AGARKAR CHK.,19.12097,72.84962
3153,N.C.P.A.,18.9260702372,72.8208040647
79,VAKOLA POLICE STN.,19.0797822132,72.8469872126
80,PARLE TILAK SCHOOL,19.10333,72.84848
83,P.THAKRE CHK.,19.01805,72.83548
86,NAV SCTY.,19.09998,72.85283
87,NAVY NGR.,18.9079393907,72.8059461549
89,DHOBI GHAT(NAVY NGR.),18.9071273957,72.8122976258
92,OLD CUSTOM HOUSE,18.93005,72.83481
93,NEW CUSTOM HOUSE,18.9339820113,72.8398293833
3420,GOREGAON CHECK NAKA NO 1,19.1663606963,72.8574310457
3262,AHILYABAI HOLKAR CHK.,18.9333194533,72.8277272066
107,P.MOHD.RAFI CHK.,19.0521364408,72.8380851949
3264,AHILYABAI HOLKAR CHK.,18.9318936516,72.8272023862
109,KHAR,19.0691726662,72.8336219991
110,ST.TERESA CONVENT SCHOOL,19.075500175,72.8375026265
111,SANTACRUZ STN.RD.,19.0810769173,72.837867407
112,KHIRA NGR.,19.08696,72.83825
113,SANTACRUZ DEPOT,19.09183,72.83859
3281,WORLI SEA FACE (N),19.0123344726,72.8172658624
17,A.H.ANSARI CHK./ NEW NAGPADA,18.97051,72.83282
3154,J.V.P.D.BUS STN.,19.1167743131,72.8298176782
126,BEST NGR.,19.15715,72.83504
128,OSHIWARA DEPOT,19.1509965982,72.8358283704
130,K.C.COLLEGE,18.929281524,72.8281831323
3160,A.H.ANSARI CHK./ NEW NAGPADA,18.967139193,72.8326984131
134,JUHU KOLIWADA,19.08599,72.82813
135,JUHU TARA,19.09008,72.82746
136,ROYAL HOTEL,19.09221,72.82793
137,JUHU BEACH,19.09542,72.82822
3304,BLOSSOM CO.,19.1171,72.88088
3305,GHATKOPAR STN.(W),19.0863782672,72.9082562211
3306,GHATKOPAR POST OFFICE,19.08738,72.90586
3308,SARVODAYA HOSPITAL,19.0889644943,72.9067850074
3165,MAJESTIC CINEMA,18.9572378308,72.8195459822
147,RUIA COLLEGE,19.0218525295,72.8508539417
148,JAGATDEV.N.VARMA CHK/KAPOLE NIWAS,19.0230088253,72.8517122486
149,MAHESHWARI UDN.,19.0268913676,72.855319674
150,GANDHI MARKET,19.03259,72.85856
151,LOKMANYA TILAK HOSPITAL,19.03592,72.86017
152,JAIN SCTY.,19.0388187232,72.8614136529
153,RANI LAXMIBAI CHK.(NEAR RD NO.1),19.0441117981,72.8644811679
154,RANI LAXMIBAI CHK.,19.0439417564,72.8643607675
3143,M.I.D.C.ELECTRONIC ZONE,19.1072045441,73.0230654733
156,CHUNABHATTI,19.0520127947,72.8675204409
157,CHUNABHATTI BUS TERMINUS,19.0515318033,72.8688013219
159,CHUNABHATTI PHATAK,19.0532195859,72.8693872584
160,TATA CLY.,19.0528646482,72.8733998431
161,SHIVSHRUSTI,19.0545094486,72.8817515577
165,NEHRU NGR.,19.06194,72.88368
3334,KURLA S.T.DEPOT,19.0563956613,72.8836398328
169,KURLA BUS STN (E),19.0650032738,72.8807763647
170,EVERARD NGR.,19.050767722,72.8755218026
171,PRIYADARSHANI,19.0534855453,72.8821593754
173,LOKSHAHIR SATHE UDN./SUMAN NGR.,19.0536293719,72.8858287112
174,UMARSHI BAPPA CHK.,19.054061719,72.8895960962
175,BHAKTI BHAVAN,19.05269,72.8906
176,BASANT PARK,19.0512139349,72.8934890263
177,NAVJEEVAN SCTY.,19.04804,72.89335
178,CHEMBUR CLY.,19.04552,72.89407
179,MARAWALI CHURCH,19.0420743965,72.8933417269
180,AZIZ BAUG,19.0378270274,72.8948623173
181,VASHI NAKA,19.032979078,72.8962356083
3353,BANDRA TALAO,19.056678154,72.8366447603
191,DHANMILL NAKA,19.0092549143,72.830710765
3664,CADBURY JN.(THANE),19.2046147257,72.9689005267
198,SANDUWADI,19.07775,72.90388
199,ACHARYA GARDEN/ DIAMOND GARDEN,19.0531023808,72.8999272786
201,DR.AMBEDKAR GARDEN,19.0617000214,72.9004992502
3368,Y.B.CHAVAN PRATISHTHAN/MANTRALAYA,18.92449,72.825
203,MAHATMA GANDHI HOSPITAL,18.99775,72.84076
3665,DOMESTIC AIRPORT TERMINAL 1-B,19.09352,72.85585
205,BHOIWADA,19.0057634736,72.8459653835
3375,INDIAN OIL NGR.,19.063863851,72.9125989571
208,SAHAKAR NGR.,19.0123062006,72.8505251388
3377,ANUSHAKTI NGR.,19.0431901964,72.9237352525
3379,ANUSHAKTI NGR.BUS STN.,19.0426831117,72.9263530885
3380,ANUSHAKTI NGR.BUS STN.,19.0425405932,72.9262390529
216,MATUNGA POLICE STN.,19.0306969734,72.8578706005
217,GURU TEGH BAHADUR NGR STN,19.0373299973,72.8651769378
218,SARDAR NGR.NO 2,19.0367316161,72.8683419445
219,SARDAR NGR.NO 4,19.0334861212,72.8665395
32,CITYLIGHT CINEMA,19.0302593381,72.8417167644
3397,STATE BANK,19.11531,72.87979
224,ANTOP HILL,19.0262201759,72.8662147394
3404,SANTACRUZ STN.RD.,19.0791444982,72.8377382955
231,GANDHI MARKET,19.0323603254,72.8587289073
232,TATA HOSPITAL,19.00444,72.84307
233,BACKBAY DEPOT,18.90978,72.81726
234,PRESIDENT HOTEL,18.9134,72.8209
235,CUFFE PARADE MACCHIMARNGR.,18.91811,72.82491
237,Y.B.CHAWAN PRATISHTHAN,18.9252220278,72.8269385873
238,LION'S PARK,19.0598014333,72.8723226701
3185,OMKARESHWAR MANDIR,19.2301235535,72.8629029885
240,GOL BUILDING,19.065987122,72.8748761331
241,ANJANABAI MAGAR,19.0639996144,72.8741680299
242,KURLA DEPOT,19.0757417884,72.8774939691
243,SHEETAL CINEMA,19.08222,72.88204
244,KAMANI,19.08512,72.88515
245,MUKUND CO./ P.W.D.OFFICE,19.08475,72.88985
246,NARAYAN NGR.,19.0897958802,72.9041725358
248,CHIRAG NGR.,19.0856997434,72.8937441072
249,GHATKOPAR POLICE STN.,19.08686,72.89973
250,GHATKOPAR PIPE LINE,19.08758,72.90282
251,SARVODAYA HOSPITAL,19.0887211611,72.9066026172
3433,IRANI BRIDGE,18.9593,72.81453
258,DHOBI GHAT(CUFF PARED),18.91086,72.81841
262,MANEKLAL MUN.SCHOOL,19.0895,72.90269
3444,S.K.PATIL GARDEN,18.9497842282,72.8209175722
3445,SUKH SAGAR,18.9561533962,72.8136228082
265,BARVE NGR.,19.0912761424,72.9075360259
3447,D.A.V.COLLEGE,19.1392570347,72.9360546129
3448,UDAY SHREE MARG,19.1506087339,72.9486717241
3454,INS ASHWINI HOSPITAL,18.90259,72.81507
3460,VASHINAKA M.M.R.D.A.CLY.,19.037543051,72.9087883465
3461,VINAY HIGH SCHOOL,19.0332224931,72.9019648068
3464,CHEMBUR NAKA/SWAMI VIVEKANAND CHK.,19.0510332454,72.893175816
3466,NAHUR RLY.STN.,19.1570342603,72.947105314
282,GHATKOPAR STN.(W),19.0871057415,72.908999193
45,TELEPHONE EXCHANGE,19.0512020027,72.8358937418
294,MADINA MANZIL,19.17196,72.84522
295,BEHRAM BAUG,19.14685,72.83669
296,GOREGAON DEPOT,19.1535354906,72.8356634416
3488,ADARSH NGR.,19.15093,72.88212
298,CUFFE PARADE POLICE STN.,18.9122132925,72.8178167585
299,WORLD TRADE CENTRE,18.91521,72.8187
300,G.D.SOMANI SCHOOL,18.91632,72.81945
3502,WADIA MATERNITY HOSPITAL,19.00279,72.84256
305,RANI LAXMIBAI CHK/ROOPAM CINEMA,19.04573,72.86513
47,PARIJAT,19.0509383316,72.8299714242
308,MAKER TOWER,18.91627,72.81747
455,DOORDARSHAN,19.00592,72.81806
319,S.G.BARVE MARG NAKA,19.05764,72.88813
321,AMAR MAHAL,19.06614,72.90068
327,GHATKOPAR DEPOT/CASURINA,19.1149591935,72.9348045886
328,VIKHROLI VILLAGE,19.1045377361,72.9304701388
332,VIKHROLI STN.RD.(E),19.1090997389,72.9323798717
333,GHATKOPAR BUS STN./GKD,19.0879619559,72.9182232873
3540,COLABA BUS STN./POST OFFICE,18.9116703775,72.8214156199
338,DR.AMBEDKAR GARDEN/CHEMBUR STN.,19.0615553318,72.9017346991
3544,VEEJ BHAVAN,18.9214466078,72.8264450609
340,ACHARYA MARATHE COLLEGE,19.05857,72.90791
341,SAMRAT ASHOK NGR.,19.05542,72.91054
344,TROMBAY,19.0335852151,72.950019518
346,R.C.F.CLY./GOLF CLUB,19.0484776437,72.900488597
347,WADAVLI VILLAGE/BORLA SOC.,19.0460639837,72.9006001706
348,BASANT TALKIES,19.04585,72.90421
349,PANJARAPOL,19.04572,72.90766
350,DEONAR DEPOT,19.04551,72.91119
351,PUNJAB WADI,19.04562,72.9146
352,TELECOM FACTORY,19.04497,72.91765
353,RAJ KAPOOR CHK./ BHABHA HOSPITAL,19.04391,72.92127
354,ANUSHAKTI NGR.,19.0427942436,72.9265934122
355,MANKHURD STN.RD.,19.04264,72.93041
356,MANDALA,19.04173,72.93538
357,CHEETA CAMP,19.03832,72.94481
358,SANT MUKTABAI HOSPITAL,19.0864145469,72.8976494035
359,MAROL MAROSHI BUS STN.,19.11854,72.88035
360,BAIL BAZAR,19.08615,72.88103
361,JARIMARI,19.0911086676,72.8821503549
362,SAFED POOL,19.09658,72.88368
363,DR.DATTA SAMANT CHK./SAKI NAKA,19.1041391679,72.8867717468
364,MITTAL EST.,19.1069574935,72.8840680801
365,MAROLNAKA/MATA RAMABAI AMBEDKAR CHK,19.10805,72.87978
366,MAROL VILLAGE,19.1122493277,72.8789826118
367,BOROSIL GLASS FACTORY,19.11745,72.88338
369,STATE BANK,19.1064377425,72.8883301645
370,CHANDIVLI JN.,19.1097629099,72.8878151804
371,E.S.I.S.LOCAL OFFICE,19.1222519659,72.8914200693
372,"DR.AMBEDKAR UDN., POWAI",19.1257,72.89437
374,MORARJI NGR.,19.1293070543,72.8961407571
62,KALA NGR.,19.0531099866,72.8470974172
378,R.T.O.OFFICE,19.0721038956,72.9096988709
379,RAMABAI NGR.,19.0801547885,72.9176653879
380,NALANDA SCTY.,19.0748,72.91299
381,GODREJ SOAP CO.,19.0912469396,72.9249824541
387,GANDHI NGR.,19.12593319,72.9251481543
388,TAGORE NGR.JN.,19.1244113345,72.9376615182
389,MANSUKH DYEING CO.,19.1262016157,72.9327930467
390,KANJUR VIILLAGE,19.13262,72.93624
391,ANKUR HOSPITAL,19.13129,72.93564
392,CROMPTON GREAVES,19.13442,72.93496
393,ADARSH VIDYALAYA,19.13689,72.93459
3610,JAIHIND CINEMA,18.9841271444,72.8353711632
395,BHANDUP STN.(E),19.14334,72.93988
396,WORLI DEPOT,19.01664,72.82098
400,BABASAHEB WORLIKAR CHK.,19.012987336,72.8232323021
402,PRABHADEVI,19.0172881336,72.8301416725
403,SIDDHIVINAYAK MANDIR,19.01612,72.82836
404,AGAR BAZAR,19.01869,72.83387
405,RANADE RD.,19.02224,72.83782
406,HUMA TALKIES,19.1323495408,72.9273582945
407,DOCKYARD CLY.,19.131452483,72.9269908319
409,BIRLA CO.,19.13656,72.92976
410,MANGATRAM PETROLPUMP,19.1404419315,72.9312937526
3647,MILIND NGR.,19.1255466416,72.8932870522
3649,"AHILYABAI HOLKAR CHK.,EROSS CINEMA",18.932536676,72.8281513439
3650,JEEVAN BIMA MARG,18.92912,72.82333
3651,MANTRALAYA MAIN GATE,18.9273811993,72.8257588135
3652,NARIMAN POINT FIRE BRIGADE,18.9229664422,72.8266600357
3653,FREE PRESS HOUSE,18.9228243562,72.8235701309
3654,K.C.COLLEGE,18.9294312307,72.8281406151
3655,FREE PRESS JOURNAL MARG,18.92449,72.825
434,E.S.I.S.HOSPITAL,19.1784778957,72.9445733087
3662,"DNYANSADHANA COLLEGE,KOPARI",19.1823710767,72.965154438
3663,LOUISWADI,19.1972642074,72.9626463938
438,J.V.P.D.BUS STN.,19.11633,72.83124
439,MARINE LINES RLY. STN.,18.9474403665,72.8227821057
440,S.K.PATIL GARDEN,18.9494620488,72.8206177013
441,PT.PALUSKAR CHK.,18.9568028019,72.8156612871
443,BABULNATH RD.JUN.,18.9591657008,72.8096414574
3685,MARATHON CHK.(TEEN HATH NAKA),19.1886909233,72.963720333
445,CUMBALA HILL POST OFFICE,18.96944,72.80889
446,JASLOK HOSPITAL,18.97278,72.80917
447,VATSALABAI DESAI CHK.,18.9790678632,72.8118941321
448,LALA LAJPATRAI COLLEGE,18.98194,72.81444
449,NEHRU PLANETARIUM,18.9888845822,72.8139196724
451,JARIMARI MATA MANDIR/S.T.OFFICE,18.9917489002,72.814065255
452,ACHARYA ATRE CHK.,18.9980791454,72.8170693291
3695,DR.SHAMAPRASAD MUKHERJI CHK.,18.9257294702,72.8321742593
458,NATIONAL COLLEGE,19.0622964519,72.8356403624
459,KHAR TEL.EXCHANGE,19.0720836157,72.8339804666
460,KHAR STN RD (W),19.0713022851,72.8373095075
461,RAMKRISHNA MISSION,19.07499,72.83367
467,BALKANJI BARI SCHOOL,19.08469,72.83294
468,JUHU HOTEL,19.1263428419,72.8212670077
469,JUHU BUS STN.,19.1074884012,72.8267706888
470,PARSI CLY.,19.0997,72.82757
471,BHARATIYA AROGYA NIDHI HOSPITAL,19.1121516972,72.829045202
473,WADALA DEPOT,19.0144662894,72.8529027352
3707,BHATWADI,19.0869772623,72.9080510101
3708,BABU GENU MARKET,19.0912558649,72.9113393983
3709,JIJAMATA BHOSLE MARG JN.,19.0707750064,72.9072529376
3710,UNIT NO.32,19.1639865195,72.8698791521
3712,B.A.R.C.GATE NO.6,19.14787,72.84814
3713,PRIYADARSHANI,19.0531914547,72.8825706479
483,MUMBAI CENTRAL DEPOT,18.9685071128,72.8224398713
485,MUMBAI CENTRAL STN.,18.9688476504,72.8197714356
486,NAIR HOSPITAL,18.9706921012,72.8213427047
487,AGRIPADA POLICE STN.,18.97748,72.82403
488,SANT GADGE MAHARAJ CHK.,18.98251,72.82793
489,KASTURBA GANDHI HOSPITAL,18.98379,72.82923
491,RALLI WOLF,19.1714654448,72.9407538431
492,JOHNSON & JOHNSON CO.,19.175518921,72.9424275415
494,MULUND-W CHECK NAKA BUS STN.,19.1828554594,72.9539288537
3728,AIROLI OCTROI NAKA,19.1537100444,72.9638208406
496,SEVEN BUNGALOWS BUS STN.,19.13046,72.82047
497,GOVERNMENT LOW COLLEGE,18.93552,72.82413
498,GYMKHANA,18.9451,72.8225
499,TARAPOREWALA AQUARIUM,18.94932,72.81945
500,WILSON COLLEGE,18.95606,72.81149
501,NANA CHK.,18.9623112126,72.8133661727
502,BHATIA HOSPITAL,18.9650101888,72.8129584769
503,VASANTRAO NAIK CHK.,18.97028,72.81494
504,AIR CONDITION MARKET,18.97743,72.81154
509,ESIC NGR.,19.12083,72.82989
511,INDIAN OIL NGR.,19.1270632241,72.8310622232
512,FOUR BUNGALOWS,19.1284417882,72.82878771
513,BALLARD PIER,18.9334492231,72.8420878033
514,SAIDHAM,18.9579684073,72.8170568923
522,GOREGAON BUS STN(W),19.1650686232,72.8484736719
523,PODDAR HOSPITAL/SIDDHARTH NGR.,19.00085,72.81608
524,POLICE CLY.,19.0083,72.81473
525,OLD KHAR,19.0655773197,72.8372876844
529,D.N.NGR./BARFIWALA VIDYALAYA,19.1231,72.83058
3763,KANE NGR.,19.0283704174,72.8664293162
534,ADARSH NGR.,19.14442894,72.8293481534
538,VIVEK VIDHYALAYA,19.158987986,72.8395472803
541,P.THAKRE UDN.BUS STN.,18.99819,72.8525
543,SEWREE NAKA,18.99837,72.84973
3778,ANAND NGR.POLICE CHKY,19.1775703582,72.9676671316
545,HAFFKINE INSTITUTE,19.00153,72.84415
547,PAREL S.T.DEPOT/SANT ROHIDAS CHK.,19.0093144166,72.8332590801
239,KURLA POST OFFICE,19.068988619,72.8752409136
551,ARYA SAMAJ MANDIR,19.079,72.83433
552,SANTACRUZ POLICE STN,19.0841184839,72.834415933
2625,PHATAK TECH.SCHOOL,19.08098,72.85033
561,FILMISTAN,19.16404,72.84585
3809,MUMBAI CENTRAL STN.,18.9688759396,72.8206560592
3810,MUMBAI CENTRAL STN.(ON BRIDGE),18.9689266706,72.8184888344
3815,NAVJEEVAN SCTY.,18.967120636,72.8141865711
3849,R.C.F.CLY.(SHRIKRISHNA SOC.,19.1515411602,72.9455174463
578,NEW AGRIPADA,19.085541315,72.845785583
3846,SHIVAI VIDYALAYA,19.1525141211,72.9461397188
3847,NAHUR STN.(E),19.1540546309,72.9468692796
590,KURLA STN (W),19.0666319246,72.8793608576
3853,DEONAR VILLAGE,19.0500859672,72.9198449744
3854,MAHALAXMI MANDIR,19.0479765724,72.9202312125
3855,TELECOM FACTORY,19.0455020559,72.9187291754
3859,KACHWADI,19.0523575931,72.9168409003
602,VAKOLA PIPE LINES,19.08067,72.85208
603,MILITARY CAMP,19.08198,72.85795
604,KALINA,19.07741,72.86207
605,VIDYA NGRY,19.07336,72.86092
3873,PETROLEUM HOUSE,19.20601,72.98222
3874,RAHEJA CHEMBERS,18.9240625307,72.8250828968
608,METRO PLAYING CARDS,19.073794957,72.8694687998
610,BUDDHA NGR.,19.07338,72.88031
611,MEHTAB LANE(KURLA MARKET),19.0705257328,72.8793393999
3893,NATIONAL(HINDUJA)HOSPITAL,19.0321196196,72.8395790925
3157,CHANDAN CINEMA,19.1160038861,72.827543165
622,VILE PARLE STN.(E),19.10085,72.84464
623,PARLESHWAR MANDIR,19.10304,72.84584
624,VISHAL HALL/PRAKASH STUDIO,19.1187,72.85181
625,NATRAJ STUDIO,19.1176,72.85359
627,CHAKALA,19.11498,72.85813
629,MAROL DEPOT,19.11774,72.86429
3263,AHILYABAI HOLKAR CHK.,18.9333245275,72.8276842913
632,DOMESTIC AIRPORT JUN.,19.0959234152,72.8525662073
634,HANUMAN RD.,19.10226,72.85469
635,BAHAR CINEMA,19.11093,72.85379
108,BANDRA TALKIES/SHROFF EYE HOSPITAL,19.060668892,72.8370565687
638,SHANKARWADI,19.12948,72.85541
639,ISMAIL YUSUF COLLEGE,19.1345,72.85538
640,JOGESHWARI POLICE STN,19.13961,72.85509
641,S.R.P.CAMP,19.14635,72.85634
642,MAHANANDA DAIRY,19.15051,72.8566
643,VANRAI/ MHADA CLY.,19.15371,72.85678
644,GOREGAON CHECK NAKA NO 1,19.1661755084,72.8582061784
3924,MANPADA,19.2352436251,72.9759561223
647,GEN.A.K.VAIDYA MARG JUN.,19.1739864855,72.8593741693
3926,TATWADNYAN VIDYAPITH,19.2227454015,72.9775257529
653,KURAR VILLAGE,19.19159,72.86636
654,PUSHPA PARK,19.18776,72.8583
3930,SIDDHIVINAYAK TOWER,19.2090009867,72.9736441162
656,MAHINDRA CO. GATE (B.H.A.D.CLY.),19.2059713752,72.8653062478
3932,GARTAN PADA,19.2492579119,72.8659781947
658,MAGATHANE TEL.EXCHANGE,19.21701,72.86674
659,MAGATHANE DEPOT,19.223478006,72.8647912637
663,MAHANT RD./PARLE(E),19.10064,72.85207
664,VILEPARLE STN(E)/DINANATH NATYAGRUH,19.1008051991,72.8446422731
3943,RAILWAY POLICE CLY.(GHATKOPAR,19.083912832,72.9058537645
3944,SAIBABA MANDIR(GHATKOPAR),19.0699759328,72.9007790251
3945,VALLABH PARK(EXTN.RD),19.0845769474,72.9090455932
3946,RLY.POLICE GROUND(EXTN.RD),19.080754445,72.9152951402
3947,KAPILVASTU BUDHHA VIHAR,19.0751942444,72.8608127743
3958,NITIN CO.JUN.,19.1989476342,72.9635740937
679,CHIRA BAZAR,18.94948,72.82479
680,PRINCESS STREET,18.9453655145,72.8277857283
682,THAKURDWAR,18.9524640144,72.8219024931
683,GAIWADI,18.95378,72.82042
3971,MULUND-W CHECK NAKA BUS STN.,19.1835445097,72.9534138696
3972,"MAHARANA PRATAP CHK./""R"" MALL",19.1829365243,72.9479636209
695,CENTRAL TALKIES,18.9562840178,72.8174860457
699,AMBIKA MILL B.STN/H.U.RAKHANGI CHK.,18.99069,72.82302
703,DR.SHAMAPRASAD MUKHERJI CHK./REGAL,18.9235674747,72.8317803649
705,RESERVE BANK,18.93263,72.83621
4230,GOVANDI STN.RD.(E),19.052834414,72.9142288755
710,SHRAWAN YESHWANTE CHK.,18.9880273201,72.8414408185
711,HAKOBA,18.9881287705,72.8392735937
4233,VILE PARLE STN.(E),19.0986356202,72.8445779001
728,MAHIM MACHHIMAR NGR.,19.0448537078,72.8434870224
741,MADHAV NGR.,19.0117483037,72.8527460079
751,CHOWPATI BAND STAND,18.95571,72.80926
1087,DEONAR BEST STAFF QUARTERS,19.0476218126,72.9142717909
754,CHRIST CHURCH SCHOOL,18.9671430782,72.8281291989
755,ALEXANDRA CINEMA,18.9671227856,72.8273459939
3271,MILLENNIUM BUSINESS PARK,19.0969042588,73.0264128701
780,PHOENIX MILL,18.994809588,72.8255180083
781,K.V.YADAV CHK.,18.99774,72.82709
782,BHARATMATA CINEMA,18.9953924587,72.8366343
786,K.E.M.HOSPITAL,19.0020877565,72.8416983106
807,DR.BHADKAMKAR RD.,18.96024,72.81732
808,GANESH TALKIES,18.9883250885,72.8336486797
809,KUMBHARWADA,19.0542,72.89186
810,RESERVE BANK CLY.,19.0526558292,72.8992182986
811,MAITRI PARK,19.049406394,72.9053017293
812,R.K.STUDIO,19.0468102014,72.9080483113
815,VASUDEO B.PHADKE CHK.,18.9432953831,72.8299744109
816,VASUDEO B.PHADKE CHK.,18.9439042479,72.8286011199
819,CHH. SHIVAJI TERMINUS(GPO),18.9384599027,72.8370017985
820,CHH. SHIVAJI TERMINUS,18.9391804134,72.8354246596
822,MINERVA TALKIES,18.96472,72.81837
823,DR.SHIRODKAR HIGH SCHOOL,18.9994,72.83999
824,NAIGAON POLICE CLY.,19.0070821834,72.8470060806
4076,RANI LAXMIBAI CHK.,19.0425509169,72.8637739969
826,KHODADAD CIRCLE (DADAR WORKSHOP),19.016389371,72.8499293115
1027,MOHITE PATIL NGR.,19.05347,72.93514
833,MAHAPOUR NIWAS/SHIVAJI PARK,19.02878,72.83763
837,R.B.I.BANK,19.0577,72.85326
838,INCOME TAX OFFICE,19.05913,72.85472
839,TATA CLY.,19.06031,72.85788
840,BHARAT NGR.,19.06187,72.85953
841,KURLA TEL.STORES,19.0706,72.87125
842,KAPADIA NGR.,19.075173965,72.8726874506
845,GAONDEVI POLICE STN.,18.95992,72.81228
846,APNA BAZAR,19.0071191969,72.8450242498
847,SPRING MILL/HINDMATA CINEMA,19.011075263,72.848478935
849,SHARDA CINEMA,19.0141741156,72.8460688808
851,CHITRA CINEMA,19.0120693366,72.8437367895
855,WILSON COLLEGE,18.9559253102,72.8110249262
861,MADKEBUWA CHK.,19.0054987546,72.8395809614
863,WALKESHWAR,18.94686,72.7958
864,TEEN BATTI,18.94824,72.79861
865,PARSI AGYARI,18.94929,72.8006
866,WHITE HOUSE,18.95082,72.80199
867,SHITAL BAUG,18.9527752769,72.8050943879
869,PHOENIX CHEMICALS,18.9851416694,72.837087777
870,AZAD FLOUR MILL,18.9867243161,72.8388473061
871,NAIGAON POLICE CLY.,19.0079662087,72.8471846798
895,HUTATMA CHK. ( O.C.S.),18.9320825189,72.8312515794
896,HUTATMA CHK. (SIDDHARTH COLLEGE),18.933790825,72.8320904205
897,HUTATMA CHK. (SIDDHARTH COLLEGE),18.9329958767,72.8315519869
900,BANDRA BUS STN(W),19.0541622958,72.8392646526
901,AHILYABAI HOLKAR CHK.,18.9328656479,72.8279718602
902,INCOME TAX OFFICE,18.94578,72.82694
903,MARINE LINES RLY.STN.(KALA NIKETAN),18.9441931305,72.825056619
4149,L & T GATE NO.6,19.1152776743,72.8888451486
4150,HIRANANDANI EST.,19.2514228617,72.981284525
4151,THANE MUN.COMMISSIONER HOUSE,19.2480802944,72.97509649
4152,HIRANANDANI GATE(THANE-W),19.2486272646,72.9782482644
4153,INDIAN BANK(HIRANANDANI THANE-W),19.2498528765,72.9794606229
919,SIR ALIYAWAR JUNG INSTITUTE,19.0520538604,72.8341985857
921,HILL RD.GARDEN/MEHBOOB STUDIO,19.05278,72.82419
922,ST.PETER'S CHURCH,19.0549136361,72.8293491518
924,BANK OF INDIA,19.05527,72.83118
925,BANDRA POLICE STN,19.0560535829,72.8348255967
4165,SARVODAY HOSP/GHATKOPAR POST OFFICE,19.0894098113,72.908063102
4668,RIDDHI SIDDHI,19.137604892,72.8073300378
3446,HEMA PARK,19.1486627838,72.9429425256
954,DHARAVI T JN./TAPASE CHK.,19.04753,72.85245
3317,DR.RAVINDRA KULKARNI CHK/SASMIRA,19.004429438,72.8170049561
963,SHREE SWAMI SAMARTH NGR.EXT.,19.1403746996,72.8268161481
4207,RANI LAXMIBAI CHK.,19.0431707916,72.8641044837
4213,MANEKJI COOPER SCHOOL,19.0879011222,72.8272427576
980,KAMLA NEHRU PARK,18.95531,72.8045
981,SAHYADRI GUEST HOUSE,18.95328,72.80292
982,MALBAR HILL POST OFFICE,18.94987,72.79947
983,REKHA SADAN/JAIN MANDIR,18.94858,72.79784
987,WORLI SEA FACE (N),19.0053,72.81379
988,SAMRAT HOTEL,18.93117,72.82638
989,WORLI SEA FACE (S),19.0036513572,72.8130601587
990,POLICE CAMP,19.00824,72.81475
992,MIRA RD.STN.(E),19.2832296747,72.8578637781
993,VATSALABAI DESAI CHK/SAHAKAR NIVAS,18.97835,72.81354
995,GUNDAVLI/LION'S CLUB,19.12143,72.85622
1006,GOLDEN CHEMICALS,19.2586801738,72.8721116724
1008,TRANSPORT CORPN,19.2664586315,72.8770898523
1009,KASHIMIRA,19.2731834589,72.8824971857
1011,SILVER PARK,19.282012,72.8739480817
1024,SHIVAJI NGR.JN.,19.0622819389,72.9172338143
1025,B.M.C.COMPOST PLANT,19.057373859,72.9271043435
4244,BANDRA-WORLI SEA LINK TOLL PLAZA,19.0454214247,72.8287912523
1028,MANKHURD OCTROI NAKA,19.0583873045,72.956328932
1029,VASHI VILLAGE,19.0689295804,72.9867397636
1031,APNA BAZAR,19.070876469,72.9975544304
1032,VASHI BUS STN.,19.0749324134,72.9976831764
1049,GRANT RD BRIDGE,18.9621488668,72.815833805
1052,RANI LAXMIBAI CHK.,19.0407367708,72.8625917179
1053,RANI LAXMIBAI CHK.,19.0464857821,72.8655034197
1054,MARATHI VIDNYAN PARISHAD,19.0535542407,72.8767901553
1056,MANKHURD STN.(SOUTH),19.0449251895,72.9297382213
1057,NARMADESHWAR MANDIR,19.04088,72.93965
1058,DHOBI GHAT(TROMBAY),19.0346400072,72.948646227
1060,KIRTI COLLEGE / INDIA UNITED MILL,19.02171,72.83352
1063,NATIONAL(HINDUJA)HOSPITAL,19.0335801122,72.8387207856
1064,RANI LAXMIBAI CHK.,19.0453412957,72.8637814104
1065,RANI LAXMIBAI CHK.,19.0448955152,72.8640704359
1066,CENTRAL LABOUR INSTITUTE,19.0496701752,72.8662973536
1069,ST.ANDREW'S CHURCH,19.05473,72.82572
1072,HOLI FAMILY HOSPITAL,19.0547108168,72.8273321306
1075,WORLI DAIRY,18.9976473565,72.8115873703
1076,VENUS BLDG/WATUMAL ENGG.COLLEGE,19.00218,72.81197
1077,NATIONAL ASSO.FOR BLIND(NAB),19.008195848,72.8146909418
1081,SHANTI BAUG,19.05769,72.89545
1083,POST OFFICE,19.0598010064,72.8985482348
4301,DADLANI PARK (THANE-W),19.2132337409,72.9939398978
1085,MUN.WARD OFFICE/AMBEDKAR UDN.,19.060247195,72.8994601858
4303,YASHASVI NGR./VARDHAMAN GARDEN,19.219150281,72.9845843527
4304,BALKUM NAKA,19.2210435861,72.9888355504
4305,ASHOK NGR./VILO'S SCTY.,19.2154220751,72.9917512152
1089,PALI HILL NAKA,19.0595483509,72.83003991
1090,D'MONTE GARDEN,19.05978,72.82616
1091,PERI CROSS RD.,19.05987,72.82399
1092,ADDL.C.P.OFFICE,19.06277,72.82218
1094,RIZVI COLLEGE,19.06867,72.82294
1095,SHERLEY GAOTHAN,19.07127,72.82207
1097,KHAR DANDA,19.07441,72.82266
1098,DANDPADA,19.07482,72.82662
1100,16TH RD/KHAR,19.07312,72.83084
1102,VITHALBHAI PATEL RD.JUN.,19.0714374815,72.8357055875
1103,MILAN SUB-WAY,19.09055,72.84416
1106,TEEN BAKDA,18.9538711698,72.8070255784
1112,WANKHEDE STADIUM,18.93861,72.82417
1113,MARINE DRIVE,18.94119,72.82394
1117,BIRLA KRIDA KENDRA,18.95437,72.81457
4334,VASHI JUN.-Y.B.CHAVAN MARG JN.,19.0685645362,72.9969965309
4336,SAIBABA MANDIR(AMRUT NGR.),19.0978223343,72.9076790608
4345,LOKMAT OFFICE(MAHAPE),19.1129626918,73.0105341928
1135,HUTATMA CHK./MUMBAI UNIVERSITY,18.9290336642,72.8312432222
4347,CHH.SHIVAJI MAHARAJ VIDYALAYA,19.1051364281,73.0179585473
4348,MAHAPE CIRCLE,19.113246539,73.0215634362
4349,LIPI CO.,19.1120705975,73.0266274469
4350,L & T INFOTECH(MAHAPE),19.1110973983,73.0295456903
4357,SHINDEWADI,19.0107028727,72.8427454782
1158,GURU TEGH BAHADUR NGR STN,19.037573406,72.8627951362
1159,NARAYAN PUJARI NGR.,18.99483,72.81385
1165,DIVINE CHILD HIGHSCHOOL,19.11333,72.8639
1166,J.B.NGR.,19.11166,72.86848
1167,MAROL PIPE LINES,19.1105,72.87296
1168,JOHN BACKER,19.1124392156,72.8882443338
1170,MAROL LIONS CLUB,19.1095,72.87523
1172,MAJAS DEPOT/SHYAM NGR.,19.13923,72.86582
4381,NORTH BOMBAY SCHOOL,19.0869214978,72.8959757051
1177,VIKHROLI POLICE STN.,19.1188113169,72.936413914
1179,I.I.T.MARKET,19.12747,72.91849
1180,I.I.T.MAIN GATE,19.12467,72.91594
1181,PUNCH KUTIR,19.123884225,72.9106248513
1182,SHIPPING CORPORATION,19.12311,72.89803
4397,GANDHI NGR.,19.1250600823,72.931782116
1200,GREEN FIELDS,19.13964,72.8691
1201,FILTER PADA,19.1387944568,72.8933083444
1202,P.W.D.OFFICE,19.1272797609,72.8945099741
1203,JAIBHIM NGR.,19.1337670123,72.896741572
1204,MAHATMA PHULE NGR.,19.1374970664,72.8970848947
1212,VESAVA-YARI RD.BUS STN.,19.13957,72.80847
1214,SEVEN BUNGALOWS GARDEN,19.12873,72.81639
1215,PICNIC COTTAGE,19.13042,72.81424
1216,MACHHALIMAR,19.13264,72.81239
1217,GANGABHUWAN,19.13536,72.80999
1088,MOTI MAHAL,19.0592741922,72.8354645883
1243,RANI LAXMIBAI CHK.(BUS STN.),19.0436360771,72.8639456582
1245,RANI LAXMIBAI CHK./ SION BARRIER,19.0477663512,72.8635054587
1247,KURLA LEVEL CROSSING,19.0524797133,72.8668295061
1248,KALPANA TALKIES,19.0773,72.87856
1249,OLD AGRA RD.,19.07904,72.87987
4462,BALKUM PADA NO.1,19.2111872169,72.9939756655
1253,DUNNCAN CO.,19.16761455,72.9389943139
1260,POSTAL CLY.,19.0607766734,72.8925115169
1261,KANJUR MARG VILLAGE,19.1318419375,72.9427762319
1262,BHANDUP PUMPING CENTRE,19.1547640714,72.9565466897
4471,MANTRALAYA,18.9292625297,72.824401497
4477,ASHOK NGR.,19.1192054971,72.8853703276
1272,UNIT NO 6/AAREY MARKET,19.15788,72.87446
1273,UNIT NO 2 & 3,19.16485,72.86725
1274,VIJAY PRINTING PRESS,19.1011659986,72.8841244608
1277,PARASMANI/MADHUKUNJ SCTY.,19.10787,72.82989
4490,BAINGANWADI,19.0594425715,72.9234136239
606,NAFA,19.0715033449,72.8618084108
607,AMAR BRASS & STEEL CO.,19.0727404138,72.8669367944
197,CHEMBUR NAKA/SWAMI VIVEKANAND CHK.,19.05415,72.89336
1315,DAHISAR BUS STN.,19.2558619014,72.8700551524
4531,GHANSOLI RLY.STN.,19.1168554104,73.0077446954
1330,DAHISAR CHECK NAKA,19.2529853497,72.8684672846
3369,VIDHAN BHAVAN,18.92542,72.82473
1337,FATHER AGNEL ASHRAM,19.0447115153,72.8190923845
1338,MUNICIPAL GARDEN/BAND STAND,19.04663,72.81958
1339,SISTERS BUNGALOW,19.04941,72.82091
1340,PRARTHANALAYA,19.05181,72.82199
1341,BANDRA TALAO,19.0574082939,72.8384686624
1343,PALI MARKET,19.0620731804,72.8295819225
1344,L.I.C.CLY.,19.0652267632,72.8298716011
1345,DR.AMBEDKAR RD.,19.0686441095,72.8300969067
1349,MOUNT CARMEL CHURCH/LILAVATI HOSP.,19.051161438,72.8278900301
1350,MOUNT MARY STEPS( MUNICIPAL GARDEN),19.0482204666,72.825014702
1351,JOHN BAPTIST RD.,19.0477133973,72.8258086359
1352,TOBACCO CO.,19.0490317743,72.826259247
1353,BANDRA TALKIES,19.0601922827,72.836418203
1354,BANDRA TALKIES,19.0595583115,72.8370062771
1355,ST.THERESA CHURCH,19.0622558898,72.833145908
207,SPRING MILL,19.0118700268,72.8489479999
1360,KHAR STN (W),19.0697643812,72.8396216126
618,SHREE SWAMI SAMARTH NGR.,19.130603571,72.8255716031
620,SEEPZ BUS STN.,19.12483,72.87269
4616,LODHA COMPLEX,19.2111435777,72.9831498989
4620,AHILYABAI HOLKAR CHK (E),18.9332960354,72.8278850965
204,K.E.M.HOSPITAL,19.00157,72.8408
220,ANTOP HILL CHURCH,19.0306462612,72.8670973995
630,E.S.I.S HOSP./MIDC POLICE STN.,19.11783,72.86804
4660,DHARAVI DEPOT/KOLIWADA,19.0508789358,72.857976457
1473,VILE PARLE POLICE STN.,19.09623,72.85419
1486,GOREGAON STN(E),19.1653168777,72.8504251158
1487,PERU BAUG,19.1663606963,72.8521524584
3402,P.MOHD.RAFI CHK.(SAGA DEPT.STORES),19.0545485611,72.8376961862
4669,SEEPZ VILLAGE/REL.ENGY. TR.CENTRE,19.1293579726,72.8836740151
4346,D.A.K.C.GATE NO.2,19.1123544462,73.0167569177
636,DARPAN CINEMA/ SAI SERVICE,19.11574,72.85524
3233,MAHIM,18.9888317017,72.8282830072
1539,KANDIVLI BUS STN.( E ),19.20205,72.85407
1540,E.S.I.S.HOSPITAL,19.20185,72.85639
1541,GROVEL CO.,19.20158,72.8605
1543,SAMBHAJI NGR.(KANDIVLI-E),19.20096,72.86366
1544,HANUMAN NGR.,19.2013,72.86613
1545,TRACTOR GATE NO 3/VASA HOSPITAL,19.20067,72.8716
1546,SAI GARDEN,19.1992,72.87307
1547,ALIKA NGR.JN.,19.19757,72.87214
1548,ANITA NGR.,19.19711,72.87505
1550,GAUTAM NGR.,19.20013,72.87823
1551,DAMU NGR.EXTN.,19.20453,72.87845
1552,DAMU NGR./MAYUR MARKET,19.20106,72.87881
3922,PATLI PADA,19.2412193159,72.9757645679
1583,OTIS CO.,19.20031,72.87692
1588,NANCY CLY.,19.23883,72.86436
1590,GOKULANAND HOTEL,19.24398,72.86518
646,VIRWANI EST./SARVODAYA NGR.,19.17065,72.85923
1616,DIAMOND MARKET,19.06664,72.86472
3928,KAPUR BAWDI,19.2195238207,72.9779173554
1623,SANTACRUZ STN (E),19.08103,72.84206
1627,RAMASHRAM,19.12018,72.89961
1628,VIDYA VIHAR BUS STN(W),19.0805602056,72.8962457675
3929,MAJIWADA,19.2146918483,72.977363714
1630,INDIRA NGR./KHALAI VILLAGE,19.08195,72.89437
1631,NAVPADA,19.0826590466,72.8898942966
1634,VIDYA VIHAR S.T.WORKSHOP,19.08082,72.89087
655,BANDONGRI,19.19929,72.86099
1642,VAKOLA MASJID,19.08178,72.8556
3148,DR.SHAMAPRASAD MUKHERJI CHK.,18.9256033912,72.8312324933
1644,THANAWALA LANE,19.10283,72.84582
1645,SHREE PARLESHWAR SCTY.,19.10582,72.84682
1646,BHUTTA COLLEGE,19.108687425,72.8486226713
1648,MADKEBUWA CHK.,19.0053481647,72.8397500259
657,DATTANI PARK,19.21174,72.86876
1665,DHARAVI DEPOT,19.0517011671,72.8592997549
1670,RANI LAXMIBAI CHK./ SION BARRIER,19.0470439892,72.8630744135
1688,ST.JOSEPH TECH.SCHOOL,19.0809480692,72.8887051135
1689,HOLY CROSS SCHOOL,19.08238,72.88578
544,PAREL VILLAGE/ST.GORA KUMBHAR CHK.,19.00062,72.84605
1629,NAVSENA GATE/KIROL VILLAGE(VIDYAVIH,19.0824,72.89564
1721,CENTRAL DAIRY,19.15416,72.87893
1722,UNIT NO 7(AAREY CLY.),19.15913,72.88222
1725,FIRE BRIGADE/AGRI.INDU,19.1657701423,72.8610385911
1726,CHOTHA KASHMIR/OBSERVATORY POINT,19.14459,72.87778
1751,RANI LAXMIBAI CHK.(NEAR RD NO.1),19.0469441005,72.8663449491
1752,SEEPZ VILLAGE,19.1302905189,72.8768933907
1754,KAMAL AMROHI STUDIO,19.135561334,72.8738464013
1761,THAKKAR BAPPA CLY.,19.05778,72.88672
1762,KAMGAR NGR.,19.0596288041,72.8851108144
1763,MUMBAI CENTRAL STN.(ON BRIDGE),18.9690245698,72.8180625062
1764,CHILDRENS HOME,19.042871233,72.9285197889
1765,SHELL CLY./ SAMAJ MANDIR HALL,19.0636064331,72.8935898798
1766,SAHAKAR NGR.(CHEMBUR),19.0640526115,72.895864393
1767,THAKKAR BAPPA CLY.,19.0590728295,72.8874807561
1770,PESTAM SAGAR/GLASS FACTORY,19.0701367413,72.9012273809
1773,SOMMAIYA COLLEGE,19.07485,72.90314
263,JAGRUTI NGR.,19.09114,72.90237
264,JAMBHULPADA,19.09395,72.89894
1788,DADOJI KONDEV NGR.(KHARDEV NAGAR),19.05613,72.91004
1790,EVEREST CO.OP.SCTY.,19.0606953347,72.8902917112
1797,GOVANDI STN(E)/PATWARDHAN SCHOOL,19.0535339586,72.9140084875
1799,CHEMBUR LEVEL CROSSING/SHELL BRIDG,19.0630385681,72.8987826364
1801,UMARSHI BAPPA CHK.,19.0537796583,72.8885493161
1643,MILITARY OUTPOST,19.08061,72.85894
1828,RANI LAXMIBAI CHK.,19.0454310652,72.8646129263
1829,KRISHNA BAUG/FINE ARTS AUDITORIUM,19.06086,72.89742
1832,GHATKOPAR STN.(E)-1,19.085590859,72.9087827368
1833,RAJAWADI HOSPITAL,19.0795,72.90401
1836,AMRUT NGR.,19.1015,72.91128
1837,MANKHURD STN.( NORTH ),19.0491285423,72.9315184986
1839,JAIN MANDIR,19.0815706631,72.9088363809
1850,GANESH MANDIR,19.0879117893,72.9055927875
1851,BABU GENU MARKET,19.0888927291,72.9071296933
1852,HANUMAN MANDIR,19.0851370237,72.8988081178
1854,RAM BHAVAN,19.0870634438,72.9010665378
1856,KALA NGR.,19.0534226424,72.8453496346
3965,PALI HILL NAKA,19.0651274906,72.8296388634
1883,JUHU NGR.( VASHI ),19.0853151787,73.0023180336
1885,VASHI SECT.28 & 29,19.0884785481,73.0042492241
1886,SAMATA NGR./BONKODE,19.0913579728,73.0055366844
1887,R.F.NAIK SCHOOL,19.0956161852,73.0057941765
1888,KOPAR KHAIRANE,19.0997526295,73.0047212929
1889,TERNA ENGG. COLLEGE(KOPAR-KHAIRANE),19.1109042925,73.002489695
1892,MAHAPE NAKA,19.1136925835,73.0088604944
1893,STANDARD ALKALI CO,19.1221266541,73.0054272668
1894,GHANSOLI VILLAGE,19.1261813426,73.0049981134
1895,TALAVALI NAKA / NOCIL CO.,19.1306413849,73.0035389917
1896,GOTHIVALI VILLAGE/TEL.EXCH.,19.1354256601,73.0040539758
1897,RABALE VILLAGE,19.1404530541,73.0026806848
1898,RABALE POLICE STN.,19.1479938581,73.0006636636
1899,DIVA VILLAGE,19.1481154812,72.9938830392
1905,VASHI SEC NO.9/16 JUHU NGR.MARKET,19.0791910482,72.9981981605
1907,ODEON CINEMA,19.0817633103,72.9117492599
1916,KRUPA BUILDING,19.0846951786,72.9029400828
1917,GELDA NGR.,19.0868725699,72.8990101612
1918,JAGDUSHA NGR.,19.0905461517,72.9070264062
3205,BORIVLI STN(E),19.2304060614,72.8577533828
1935,BAMANDAYA PADA,19.12292,72.88693
1937,ASHOK NGR.,19.11882,72.88532
1939,GANESH PADA,19.12157,72.88579
1940,"I.E.S.SCHOOL,JVLR",19.12637,72.8901
1947,PANDURANG WADI,19.1726083019,72.8532801904
2011,MILIND NGR.,19.0880317149,72.9037809333
2012,EMPLOYMENT EXCHANGE,19.0905258742,72.902391549
2013,HOMEGUARD TRG SCHOOL,19.085638909,72.8941303453
3489,ADARSH NGR.NAKA,19.1499295395,72.878373186
3490,NAVJEEVAN NGR.,19.1525241146,72.8790598315
2077,DATTA MANDIR(VAKOLA),19.08298,72.85329
2078,DIAMOND PARK,19.08345,72.85215
2120,SWAMI D.SARASWATI CHK.,18.9344665935,72.8371090869
2191,ROOP TALKIES,19.08045,72.84543
2218,ORKAY MILL,19.12058,72.87058
2238,NATURE PARK/P.M.G.P.CLY.,19.0516403201,72.8624754904
2247,SHREE SWAMI SAMRTH NGR.MARKET,19.1370906919,72.8257432645
2272,JAWAHAR NGR.,19.1600419792,72.8461562433
2274,DR.RAVINDRA KULKARNI CHK/SASMIRA,19.0100179603,72.8198702207
2275,POWAI VIHAR COMPLEX,19.11919,72.90386
2303,B.S.E.S.SUB STN.,19.0591520028,72.8993099821
2317,KURLA NAGRIK SAHAKARI BANK,19.1517033207,72.9464615838
2318,KENI VIDYALAYA,19.1507506252,72.9448522584
2327,ICICI BANK,19.06664,72.86472
2328,CITY BANK,19.06857,72.86787
2371,MAHIM PHATAK,19.0453544474,72.8407100409
2373,MAHIM BUS STN.,19.0432840233,72.8400750979
2374,MAHIM BUS STN.,19.0431499142,72.8403756599
2393,KONARK APT.,19.1623447588,72.9427708642
2419,ELCO MARKET,19.0556437837,72.8330398714
2425,JIJAMATA BHOSLE MARG JN.,19.069988548,72.9083503381
2449,MAHIM KOLIWADA,19.04658,72.83851
3312,GHATKOPAR STN.(W),19.0858485017,72.9078807118
2470,M.M.R.D.A./FAMILY COURT,19.05621,72.85161
2476,TUNGA VILLAGE,19.1182782777,72.8897034555
2487,DR.K.B.HEDGEWAR CHK.,19.163317656,72.9400242822
2488,BHANDUP VILLAGE JN.,19.1561829431,72.9498948114
2489,BHANDUP PUMPING CENTRE,19.1546221835,72.9571045892
2490,AIROLI TOLL NAKA,19.1534870763,72.9651297586
2497,TAGORE NGR.JUN,19.1240931904,72.9383720415
2501,PRABHADEVI,19.0142528754,72.8304240764
2524,AIROLI SECT.NO 10,19.1494533288,72.9875959413
2526,HIRANANDANI,19.1195861923,72.904359211
2577,SHEETAL SAROVAR,19.2825005346,72.8618978204
2578,JAMMU & KASHMIR BANK,19.2851740324,72.8682492914
2607,GODREJ CO.,19.0987995716,72.9281097949
2608,KANNAMWAR NGR.-1/PRAVIN HOTEL,19.1139657366,72.9343754352
2618,POLICE STN./CHHOTA KASHMIR,19.1613921247,72.872368242
2624,MUNICIPAL DISP.,19.0833702112,72.8506661994
1252,NIRMAL LIFE STYLE/HOECHST CO,19.1649796755,72.9378355997
2640,MAHARASHTRA NGR.,19.05188,72.93624
2641,MAHARASHTRA NGR.,19.0513703902,72.9360736504
2645,KOPAR KHAIRANE EXTN.,19.1046594538,73.0030046791
2664,VASHI SECT.NO.10/15,19.0823139775,73.0001722664
2669,AIROLI SECT.NO 5,19.1480749402,72.9974879281
2670,AIROLI SECT.NO 9,19.1488857584,72.9922951715
2684,RANI LAXMIBAI CHK.,19.0437547562,72.8643269827
2685,RANI LAXMIBAI CHK.,19.0392154896,72.8615832073
2687,COLABA BUS STN.,18.9128712614,72.8227815852
2693,BANK OF INDIA,19.0552381466,72.8305078661
477,GOREGAON-MULUND LINK RD,19.161169167,72.9451741235
2701,MITHAGAR,19.1650854875,72.9638905813
2702,HELAN KELAR INSTITUTE,19.111796393,73.0061804146
2712,BAHAR CINEMA,19.1095187118,72.8538690721
2714,AGARWADI,19.04523,72.92514
2717,JAWAHAR NGR.,19.159960903,72.8436671533
2727,JAMBHULPADA/SHIVASENA OFFICE,19.0869175894,72.8982569459
2729,MAYUR NGR.,19.15581,72.88422
2730,CENTRAL DAIRY TABELA,19.15713,72.88288
2735,A.T.I.,19.0534547827,72.8805227497
2739,KRISHNA BAUG/FINE ARTS AUDITORIUM,19.0621476267,72.8979308383
2747,GHATKOPAR STN.(E)-2,19.0846971852,72.9073213597
2749,GREEN LAWN ACADEMY,19.27796359,72.8791497888
2755,R.C.F.CLY.(BHANDUP VILLAGE-E),19.1512573788,72.9475559251
2756,R.B.I.CLY.(BHANDUP VILLAGE-E),19.1480343991,72.9479850786
2757,STATE BANK(BHANDUP VILLAGE),19.1473046592,72.9458822267
2767,MILLENNIUM BUSINESS PARK,19.0959309704,73.0201043145
2788,BELA NIVAS,19.1142,72.86175
2813,DHOBI GHAT(CUFF PARED),18.9109141318,72.8188038114
2815,VASANTRAO NAIK CHK.,18.9691397408,72.8157207947
2827,CHUIM VILLAGE,19.0718685468,72.8253118458
2835,RAMGAD (ANITA NGR.),19.19711,72.87505
2850,NARSIPADA,19.20114,72.86483
2861,NANA CHK.,18.9621082803,72.8135378341
2899,ALLAHABAD BANK,19.1130060158,72.8545128023
2936,GAUTAM NGR.,19.11882,72.87013
2937,DR.AMBEDKAR CLY./18TH RD KHAR,19.0739,72.82909
2938,KHAR 14TH RD,19.07235,72.833
2939,10TH RD.,19.05760319,72.9004992502
2940,PETIT GIRL'S SCHOOL,19.0706111914,72.8257946434
2941,MAMA HOTEL,19.0722335837,72.8274200621
2954,SUBHASH NGR.,19.0602167731,72.9047816885
376,BHANDUP VILLAGE(E),19.1493519771,72.9441441553
2989,AMARNATH PATIL SPORT COMP/BANGANGA,19.0499543199,72.9144219946
825,BEST CLY.,19.0126003637,72.8538188915
2993,CHHEDA NGR.,19.0679560648,72.9032403529
2996,KALA NGR.,19.0502876191,72.84912091
3000,SHIVAJI CHK.,19.110613571,72.8497491991
3002,BIMBISAR NGR.,19.14635,72.85635
3003,NEIGHBOUR HOOD SCTY.,19.2011,72.87891
3004,GREEN HILL GATE NO.4,19.19506,72.87563
3011,MUMBAI CENTRAL STN.,18.9683781372,72.8202149225
3012,MUMBAI CENTRAL STN./RESERVE BANK,18.969931142,72.8210422973
3019,P.MOHD.RAFI CHK.,19.0548527903,72.8375888978
3020,AHILYABAI HOLKAR CHK.,18.9319342454,72.8282323545
3025,DR.SHAMAPRASAD MUKHERJI CHK.,18.9242138554,72.8319841383
3028,RAM GANESH GADKARI CHK.,19.0247053398,72.8406820723
3029,RAM GANESH GADKARI CHK.,19.025273336,72.8404460379
3034,DR.SHAMAPRASAD MUKHERJI CHK.,18.9256914893,72.8309917691
3043,KAMANI,19.0851522284,72.8851317941
3044,KAMANI,19.0844019325,72.8846382677
3045,MAROLNAKA/MATA RAMABAI AMBEDKAR CHK,19.1089039349,72.8786822044
3046,MAROLNAKA/MATA RAMABAI AMBEDKAR CHK,19.108376776,72.8787251197
3047,"DR.AMBEDKAR UDN., POWAI",19.1256579082,72.8930508524
3049,DR.DATTA SAMANT CHK./SAKI NAKA,19.1037879245,72.886461069
3050,RAM GANESH GADKARI CHK.,19.0214671039,72.8372227043
3051,AMAR MAHAL,19.0657252138,72.8993779719
3056,LOKSHAHIR SATHE UDN./SUMAN NGR.,19.0536293719,72.8872020022
3058,BABASAHEB WORLIKAR CHK.,19.0127438913,72.8244768471
3067,KURLA DEPOT,19.075555981,72.878251009
3076,SHANTARAM PUJARE CHK.,18.9882505109,72.8365055539
3077,SHANTARAM PUJARE CHK.,18.9883316711,72.8358189084
3083,A.H.ANSARI CHK.,18.9711812627,72.8321525124
3098,PT.PALUSKAR CHK.,18.9573190061,72.8168637732
3099,PT.PALUSKAR CHK.,18.9568725414,72.8167779425
394,C.G.S.CLY.,19.1419328627,72.9382003801
3106,VASANTRAO NAIK CHK.,18.968662869,72.815109251
3109,LOKMANYA TILAK HOSPITAL,19.035382715,72.8600056388
3110,LOKMANYA TILAK HOSPITAL,19.0367924685,72.860584996
3112,GEN.A.K.VAIDYA MARG JUN.,19.1751681505,72.8592980996
3115,VASUDEO B.PHADKE CHK.,18.9428598221,72.8293418466
3118,VASUDEO B.PHADKE CHK.,18.9437528254,72.8287624895
3119,HUTATMA CHK./MUMBAI UNIVERSITY,18.9300934115,72.8297495424
3120,HUTATMA CHK. (PAY & PARK),18.9287433664,72.829677513
3125,PAREL S.T.DEPOT/SANT ROHIDAS CHK.,19.0093448479,72.8318750602
3131,VASANTRAO NAIK CHK.,18.9690999494,72.8158664285
3135,DEEPAK CINEMA,19.0031164725,72.8300368532
